Date; Time; System Timestamp;Angle Pitch; Angle Roll; Angle Yaw; Pitch Reference; Roll Reference; Yaw Reference; Ang.vel. Pitch; Ang.vel. Roll; Ang.vel. Yaw; Total acc. X; Total acc. Y; Total acc. Z; Trans. acc. X; Trans. acc. Y; Trans. acc. Z; Total acc.; Height; dHeight; Height reference; dHeight reference;Latitude; Longitude; Height; Speed x; Speed y; Horizontal accuracy; GPS Status;Battery 1; Battery 2; Status; FlightMode;Pressure; Temp. Gyro; Temp. ADC;Pitch; Roll; Yaw; Thrust;debug1;debug2;debug3;debug4;
1.4.2010;13:36:55.80;0;0.000;0.000;0.000;0.000;0.000;0.000;0;0;0;0.000;0.000;0.000;0.000;0.000;0.000;0.000;0.000;0.000;0.000;0.000;0.0000000;0.0000000;0.000;0.000;0.000;0.00;00;12.276;0.000;0;97;0;0;0;0;0;0;0;0;0;0;0
1.4.2010;13:36:56.35;0;30.196;-33.563;33.839;3.078;-3.348;142.450;-28;-256;362;0.054;-0.058;-1.011;0.152;-0.205;0.022;1.014;-4.101;-0.854;2.136;-0.230;90.0000000;0.0000000;487.000;0.000;0.000;50.69;8192;12.277;0.000;0;97;0;0;0;0;0;0;0;0;0;0;0
1.4.2010;13:36:56.60;0;32.113;-33.631;37.944;3.199;-3.314;147.640;16;-230;336;0.056;-0.058;-1.010;0.165;-0.195;0.025;1.013;-4.632;-0.977;2.087;-0.004;90.0000000;0.0000000;487.000;0.000;0.000;50.69;8192;12.276;0.000;0;97;0;0;0;0;0;0;0;0;0;0;0
1.4.2010;13:36:56.77;0;32.852;-33.629;39.529;3.107;-3.268;146.210;-65;-286;351;0.054;-0.057;-1.012;0.172;-0.192;0.024;1.015;-4.861;-1.029;2.103;-0.250;90.0000000;0.0000000;487.000;0.000;0.000;50.69;8192;12.279;0.000;0;97;0;0;0;0;0;0;0;0;0;0;0
1.4.2010;13:36:56.96;0;33.457;-33.613;40.903;3.049;-3.285;147.560;21;-227;378;0.053;-0.057;-1.010;0.176;-0.187;0.027;1.014;-5.070;-1.078;2.185;0.473;90.0000000;0.0000000;487.000;0.000;0.000;50.69;8192;12.276;0.000;0;97;0;0;0;0;0;0;0;0;0;0;0
1.4.2010;13:36:57.18;0;34.044;-33.609;42.193;3.204;-3.061;146.140;-11;-263;325;0.056;-0.053;-1.011;0.178;-0.187;0.028;1.014;-5.272;-1.125;2.218;1.095;90.0000000;0.0000000;487.000;0.000;0.000;50.69;8192;12.276;0.000;0;97;0;0;0;0;0;0;0;0;0;0;0
1.4.2010;13:36:57.36;0;34.755;-33.593;43.727;3.199;-2.952;149.020;4;-219;348;0.056;-0.052;-1.016;0.184;-0.187;0.026;1.019;-5.523;-1.185;2.312;1.198;90.0000000;0.0000000;487.000;0.000;0.000;50.69;8192;12.276;0.000;0;97;0;0;0;0;0;0;0;0;0;0;0
1.4.2010;13:36:57.58;0;35.393;-33.585;45.168;2.934;-3.405;151.590;-15;-200;297;0.051;-0.059;-1.012;0.192;-0.174;0.029;1.015;-5.773;-1.242;2.222;0.976;90.0000000;0.0000000;487.000;0.000;0.000;50.69;8192;12.276;0.000;0;97;0;0;0;0;0;0;0;0;0;0;0
1.4.2010;13:36:57.80;0;36.040;-33.559;46.561;2.963;-3.256;151.160;-19;-250;391;0.052;-0.057;-1.012;0.196;-0.172;0.032;1.014;-6.028;-1.304;2.297;-1.189;90.0000000;0.0000000;487.000;0.000;0.000;50.69;8192;12.278;0.000;0;97;0;0;0;0;0;0;0;0;0;0;0
1.4.2010;13:36:58.08;0;36.714;-33.526;48.058;3.015;-3.296;151.420;-46;-182;317;0.053;-0.058;-1.014;0.202;-0.168;0.032;1.017;-6.312;-1.368;2.306;0.913;90.0000000;0.0000000;487.000;0.000;0.000;50.69;8192;12.275;0.000;0;97;0;0;0;0;0;0;0;0;0;0;0
1.4.2010;13:36:58.21;0;37.676;-33.471;50.108;3.032;-3.296;159.720;-17;-219;380;0.053;-0.058;-1.012;0.206;-0.159;0.034;1.015;-6.717;-1.459;2.381;0.626;90.0000000;0.0000000;487.000;0.000;0.000;50.69;8192;12.276;0.000;0;97;0;0;0;0;0;0;0;0;0;0;0
1.4.2010;13:36:58.39;0;38.119;-33.443;51.113;3.170;-3.176;153.100;-50;-234;318;0.055;-0.055;-1.015;0.209;-0.160;0.032;1.018;-6.928;-1.507;2.305;-0.266;90.0000000;0.0000000;487.000;0.000;0.000;50.69;8192;12.277;0.000;0;97;0;0;0;0;0;0;0;0;0;0;0
1.4.2010;13:36:58.60;0;38.669;-33.400;52.344;3.095;-3.009;154.050;-8;-243;376;0.054;-0.052;-1.016;0.213;-0.160;0.034;1.019;-7.188;-1.562;2.346;0.071;90.0000000;0.0000000;487.000;0.000;0.000;50.69;8192;12.276;0.000;0;97;0;0;0;0;0;0;0;0;0;0;0
1.4.2010;13:36:58.79;0;39.358;-33.344;53.829;3.061;-3.130;156.860;-12;-208;334;0.053;-0.055;-1.011;0.217;-0.150;0.039;1.014;-7.539;-1.640;2.454;1.365;90.0000000;0.0000000;487.000;0.000;0.000;50.69;8192;12.276;0.000;0;97;0;0;0;0;0;0;0;0;0;0;0
1.4.2010;13:36:58.99;0;39.960;-33.283;55.158;3.153;-3.371;155.620;-65;-219;356;0.055;-0.059;-1.013;0.222;-0.143;0.036;1.016;-7.855;-1.697;2.345;0.336;90.0000000;0.0000000;487.000;0.000;0.000;50.69;8192;12.278;0.000;0;97;0;0;0;0;0;0;0;0;0;0;0
1.4.2010;13:36:59.21;0;40.604;-33.198;56.577;3.078;-3.325;158.860;-56;-266;374;0.054;-0.058;-1.012;0.228;-0.137;0.040;1.015;-8.204;-1.765;2.395;0.309;90.0000000;0.0000000;487.000;0.000;0.000;50.69;8192;12.276;0.000;0;97;0;0;0;0;0;0;0;0;0;0;0
1.4.2010;13:36:59.41;0;41.236;-33.107;57.992;3.250;-3.268;158.480;-5;-226;289;0.057;-0.057;-1.007;0.225;-0.131;0.044;1.010;-8.567;-1.824;2.393;1.960;90.0000000;0.0000000;487.000;0.000;0.000;50.69;8192;12.280;0.000;0;97;0;0;0;0;0;0;0;0;0;0;0
1.4.2010;13:36:59.60;0;41.883;-33.009;59.428;3.158;-3.434;157.620;-35;-156;306;0.055;-0.060;-1.011;0.234;-0.126;0.042;1.014;-8.930;-1.749;2.370;0.903;90.0000000;0.0000000;487.000;0.000;0.000;50.69;8192;12.276;0.000;0;3;0;0;0;0;0;0;0;0;0;0;0
1.4.2010;13:36:59.82;0;42.546;-32.904;60.891;3.049;-3.193;158.710;15;-229;286;0.053;-0.056;-1.012;0.240;-0.124;0.046;1.015;-9.275;-1.700;2.366;-3.395;90.0000000;0.0000000;487.000;0.000;0.000;50.69;8192;12.276;0.000;0;3;0;0;0;0;0;0;0;0;0;0;0
1.4.2010;13:37:00.00;0;43.141;-32.784;62.250;3.095;-3.360;160.700;-34;-185;331;0.054;-0.059;-1.010;0.242;-0.113;0.046;1.013;-9.617;-1.750;2.344;1.183;90.0000000;0.0000000;487.000;0.000;0.000;50.69;8192;12.276;0.000;0;97;0;0;0;0;0;0;0;0;0;0;0
1.4.2010;13:37:00.22;0;43.742;-32.639;63.631;3.141;-3.377;156.720;-25;-195;296;0.055;-0.059;-1.009;0.245;-0.107;0.047;1.012;-9.961;-1.644;2.470;1.605;90.0000000;0.0000000;487.000;0.000;0.000;50.69;8192;12.277;0.000;0;97;0;0;0;0;0;0;0;0;0;0;0
1.4.2010;13:37:00.39;0;44.358;-32.488;64.988;3.095;-3.325;161.730;-30;-247;322;0.054;-0.058;-1.011;0.252;-0.102;0.047;1.014;-10.271;-1.536;2.395;0.805;90.0000000;0.0000000;487.000;0.000;0.000;50.69;8192;12.276;0.000;0;97;0;0;0;0;0;0;0;0;0;0;0
1.4.2010;13:37:00.64;0;44.971;-32.303;66.407;2.940;-3.182;162.350;-34;-182;311;0.051;-0.056;-1.010;0.256;-0.099;0.051;1.013;-10.563;-1.279;2.457;-0.356;90.0000000;0.0000000;487.000;0.000;0.000;50.69;8192;12.276;0.000;0;97;0;0;0;0;0;0;0;0;0;0;0
1.4.2010;13:37:00.82;0;45.588;-32.128;67.852;3.187;-3.377;161.060;-15;-215;316;0.056;-0.059;-1.011;0.259;-0.089;0.047;1.014;-10.810;-1.165;2.453;-0.829;90.0000000;0.0000000;487.000;0.000;0.000;50.69;8192;12.276;0.000;0;97;0;0;0;0;0;0;0;0;0;0;0
1.4.2010;13:37:01.02;0;46.141;-31.931;69.107;3.089;-3.084;162.200;-4;-258;371;0.054;-0.054;-1.013;0.265;-0.087;0.051;1.015;-11.039;-1.224;2.590;1.734;90.0000000;0.0000000;487.000;0.000;0.000;50.69;8192;12.276;0.000;0;97;0;0;0;0;0;0;0;0;0;0;0
1.4.2010;13:37:01.24;0;46.724;-31.744;70.500;2.980;-3.182;162.510;12;-221;359;0.052;-0.056;-1.013;0.270;-0.078;0.053;1.015;-11.292;-1.273;2.630;2.319;90.0000000;0.0000000;487.000;0.000;0.000;50.69;8192;12.276;0.000;0;97;0;0;0;0;0;0;0;0;0;0;0
1.4.2010;13:37:01.50;0;47.277;-31.531;71.808;3.135;-3.182;162.970;9;-141;296;0.055;-0.056;-1.014;0.271;-0.072;0.052;1.017;-11.549;-1.327;2.630;0.845;90.0000000;0.0000000;487.000;0.000;0.000;50.69;8192;12.272;0.000;0;97;0;0;0;0;0;0;0;0;0;0;0
1.4.2010;13:37:01.68;0;48.102;-31.197;73.695;3.107;-3.417;165.770;-50;-244;330;0.054;-0.060;-1.013;0.279;-0.056;0.053;1.016;-11.942;-1.463;2.620;0.986;90.0000000;0.0000000;487.000;0.000;0.000;50.69;8192;12.276;0.000;0;97;0;0;0;0;0;0;0;0;0;0;0
1.4.2010;13:37:01.85;0;48.522;-31.000;74.741;3.262;-3.210;166.150;-14;-286;318;0.057;-0.056;-1.013;0.278;-0.054;0.054;1.016;-12.177;-1.540;2.565;0.301;90.0000000;0.0000000;487.000;0.000;0.000;50.69;8192;12.276;0.000;0;97;0;0;0;0;0;0;0;0;0;0;0
1.4.2010;13:37:02.07;0;48.984;-30.786;75.848;2.969;-3.227;166.760;-4;-202;329;0.052;-0.056;-1.010;0.282;-0.045;0.058;1.013;-12.444;-1.601;2.416;-2.624;90.0000000;0.0000000;487.000;0.000;0.000;50.69;8192;12.277;0.000;0;97;0;0;0;0;0;0;0;0;0;0;0
1.4.2010;13:37:02.25;0;49.616;-30.503;77.326;3.026;-3.302;165.510;-30;-200;312;0.053;-0.058;-1.010;0.287;-0.036;0.058;1.013;-12.815;-1.729;2.583;1.888;90.0000000;0.0000000;487.000;0.000;0.000;50.69;8192;12.276;0.000;0;97;0;0;0;0;0;0;0;0;0;0;0
1.4.2010;13:37:02.44;0;50.100;-30.261;78.524;3.078;-3.268;166.700;-17;-180;306;0.054;-0.057;-1.011;0.289;-0.028;0.057;1.014;-13.142;-1.791;2.613;1.177;90.0000000;0.0000000;487.000;0.000;0.000;50.69;8192;12.277;0.000;0;97;0;0;0;0;0;0;0;0;0;0;0
1.4.2010;13:37:02.64;0;50.597;-30.016;79.809;3.107;-3.388;170.440;-2;-250;361;0.054;-0.059;-1.007;0.289;-0.018;0.060;1.010;-13.494;-1.757;2.698;1.241;90.0000000;0.0000000;487.000;0.000;0.000;50.69;8192;12.273;0.000;0;97;0;0;0;0;0;0;0;0;0;0;0
1.4.2010;13:37:03.21;0;51.073;-29.706;81.102;2.952;-3.296;167.470;-52;-225;383;0.052;-0.058;-1.012;0.296;-0.013;0.060;1.015;-13.836;-1.634;2.671;1.141;90.0000000;0.0000000;487.000;0.000;0.000;50.69;8192;12.276;0.000;0;97;0;0;0;0;0;0;0;0;0;0;0
1.4.2010;13:37:03.30;0;52.450;-28.898;84.663;2.998;-3.210;174.400;22;-203;341;0.052;-0.056;-1.007;0.302;0.003;0.064;1.010;-14.586;-1.212;2.686;0.193;90.0000000;0.0000000;487.000;0.000;0.000;50.69;8192;12.275;0.000;0;97;0;0;0;0;0;0;0;0;0;0;0
1.4.2010;13:37:03.44;0;52.550;-28.816;84.964;2.900;-3.360;171.270;-82;-60;414;0.051;-0.059;-1.014;0.309;0.002;0.060;1.017;-14.643;-1.209;2.842;1.462;90.0000000;0.0000000;487.000;0.000;0.000;50.69;8192;12.277;0.000;0;97;0;0;0;0;0;0;0;0;0;0;0
1.4.2010;13:37:03.64;0;52.940;-28.524;86.061;3.181;-3.222;168.190;-67;-260;307;0.056;-0.056;-1.016;0.308;0.001;0.058;1.019;-14.852;-1.185;2.736;-1.434;90.0000000;0.0000000;487.000;0.000;0.000;50.69;8192;12.275;0.000;0;97;0;0;0;0;0;0;0;0;0;0;0
1.4.2010;13:37:03.82;0;53.385;-28.223;87.311;2.871;-3.061;170.390;-11;-262;385;0.050;-0.053;-1.012;0.310;0.002;0.063;1.015;-15.102;-1.300;2.698;0.288;90.0000000;0.0000000;487.000;0.000;0.000;50.69;8192;12.271;0.000;0;97;0;0;0;0;0;0;0;0;0;0;0
1.4.2010;13:37:04.02;0;53.809;-27.886;88.535;3.003;-3.360;171.430;-29;-154;373;0.052;-0.059;-1.014;0.315;0.008;0.060;1.017;-15.369;-1.416;2.764;1.313;90.0000000;0.0000000;487.000;0.000;0.000;50.69;8192;12.275;0.000;0;97;0;0;0;0;0;0;0;0;0;0;0
1.4.2010;13:37:04.50;0;54.234;-27.512;89.801;3.049;-3.026;173.260;-15;-208;331;0.053;-0.053;-1.012;0.313;0.004;0.061;1.015;-15.675;-1.540;2.765;0.521;90.0000000;0.0000000;487.000;0.000;0.000;50.69;8192;12.276;0.000;0;97;0;0;0;0;0;0;0;0;0;0;0
1.4.2010;13:37:04.68;0;55.268;-26.660;92.791;3.112;-3.285;177.740;-39;-245;372;0.054;-0.057;-1.009;0.319;0.014;0.060;1.012;-16.493;-1.752;2.763;0.154;90.0000000;0.0000000;487.000;0.000;0.000;50.69;8192;12.273;0.000;0;97;0;0;0;0;0;0;0;0;0;0;0
1.4.2010;13:37:04.82;0;55.570;-26.334;93.750;3.141;-3.176;173.600;-59;-253;336;0.055;-0.055;-1.011;0.320;0.014;0.059;1.014;-16.774;-1.722;2.853;0.818;90.0000000;0.0000000;487.000;0.000;0.000;50.69;8192;12.273;0.000;0;97;0;0;0;0;0;0;0;0;0;0;0
1.4.2010;13:37:05.10;0;55.853;-26.033;94.619;2.888;-3.348;178.590;-43;-260;310;0.050;-0.058;-1.011;0.326;0.018;0.060;1.014;-17.017;-1.696;2.736;-1.976;90.0000000;0.0000000;487.000;0.000;0.000;50.69;8192;12.272;0.000;0;97;0;0;0;0;0;0;0;0;0;0;0
1.4.2010;13:37:05.29;0;56.358;-25.483;96.240;2.940;-3.285;175.080;-3;-206;370;0.051;-0.057;-1.008;0.325;0.023;0.059;1.011;-17.491;-1.655;2.727;-0.656;90.0000000;0.0000000;487.000;0.000;0.000;50.69;8192;12.275;0.000;0;97;0;0;0;0;0;0;0;0;0;0;0
1.4.2010;13:37:05.46;0;56.694;-25.071;97.392;2.986;-3.147;176.720;0;-271;352;0.052;-0.055;-1.015;0.330;0.020;0.055;1.017;-17.815;-1.645;2.856;2.591;90.0000000;0.0000000;487.000;0.000;0.000;50.69;8192;12.273;0.000;0;97;0;0;0;0;0;0;0;0;0;0;0
1.4.2010;13:37:05.63;0;56.943;-24.778;98.268;3.026;-3.423;176.440;-15;-245;348;0.053;-0.060;-1.011;0.331;0.028;0.055;1.014;-18.049;-1.484;2.748;-0.726;90.0000000;0.0000000;487.000;0.000;0.000;50.69;8192;12.275;0.000;0;97;0;0;0;0;0;0;0;0;0;0;0
1.4.2010;13:37:05.83;0;57.296;-24.366;99.397;3.078;-2.969;176.660;-44;-235;327;0.054;-0.052;-1.011;0.328;0.024;0.055;1.013;-18.323;-1.367;2.887;1.519;90.0000000;0.0000000;487.000;0.000;0.000;50.69;8192;12.276;0.000;0;97;0;0;0;0;0;0;0;0;0;0;0
1.4.2010;13:37:06.07;0;57.600;-23.955;100.538;2.900;-3.250;177.290;-50;-188;347;0.051;-0.057;-1.009;0.331;0.032;0.055;1.012;-18.573;-1.391;2.831;-3.318;90.0000000;0.0000000;487.000;0.000;0.000;50.69;8192;12.276;0.000;0;97;0;0;0;0;0;0;0;0;0;0;0
1.4.2010;13:37:06.71;0;57.950;-23.482;101.776;2.900;-3.331;178.020;-21;-272;331;0.051;-0.058;-1.015;0.338;0.036;0.052;1.018;-18.886;-1.518;2.848;0.814;90.0000000;0.0000000;487.000;0.000;0.000;50.69;8192;12.264;0.000;0;97;0;0;0;0;0;0;0;0;0;0;0
1.4.2010;13:37:06.94;0;58.894;-22.071;105.407;2.917;-3.469;180.000;-42;-165;364;0.051;-0.060;-1.012;0.341;0.049;0.048;1.015;-19.896;-1.596;2.896;0.967;90.0000000;0.0000000;487.000;0.000;0.000;50.69;8192;12.264;0.000;0;97;0;0;0;0;0;0;0;0;0;0;0
1.4.2010;13:37:07.24;0;59.190;-21.580;106.604;2.871;-3.136;180.620;-4;-306;324;0.050;-0.055;-1.011;0.340;0.048;0.049;1.014;-20.221;-1.509;2.922;1.430;90.0000000;0.0000000;487.000;0.000;0.000;50.69;8192;12.265;0.000;0;97;0;0;0;0;0;0;0;0;0;0;0
1.4.2010;13:37:07.38;0;59.634;-20.814;108.457;2.791;-3.130;181.580;-26;-270;336;0.049;-0.055;-1.012;0.343;0.054;0.048;1.015;-20.691;-1.374;2.955;1.120;90.0000000;0.0000000;487.000;0.000;0.000;50.69;8192;12.266;0.000;0;97;0;0;0;0;0;0;0;0;0;0;0
1.4.2010;13:37:07.54;0;59.838;-20.457;109.312;2.906;-3.182;185.770;5;-170;372;0.051;-0.056;-1.013;0.342;0.058;0.045;1.016;-20.896;-1.374;2.919;0.078;90.0000000;0.0000000;487.000;0.000;0.000;50.69;8192;12.266;0.000;0;97;0;0;0;0;0;0;0;0;0;0;0
1.4.2010;13:37:07.71;0;59.999;-20.121;110.147;2.831;-3.084;183.680;-61;-195;311;0.049;-0.054;-1.015;0.344;0.058;0.042;1.018;-21.107;-1.417;2.926;0.489;90.0000000;0.0000000;487.000;0.000;0.000;50.69;8192;12.264;0.000;0;97;0;0;0;0;0;0;0;0;0;0;0
1.4.2010;13:37:07.89;0;60.197;-19.668;111.117;2.923;-3.090;184.410;-12;-178;361;0.051;-0.054;-1.012;0.341;0.064;0.041;1.014;-21.363;-1.466;2.905;0.301;90.0000000;0.0000000;487.000;0.000;0.000;50.69;8192;12.264;0.000;0;97;0;0;0;0;0;0;0;0;0;0;0
1.4.2010;13:37:08.10;0;60.397;-19.200;112.163;3.112;-3.279;187.850;-8;-219;346;0.054;-0.057;-1.009;0.339;0.070;0.036;1.012;-21.647;-1.525;2.899;0.103;90.0000000;0.0000000;487.000;0.000;0.000;50.69;8192;12.264;0.000;0;97;0;0;0;0;0;0;0;0;0;0;0
1.4.2010;13:37:08.30;0;60.622;-18.670;113.312;3.089;-3.130;184.530;-22;-232;331;0.054;-0.055;-1.013;0.342;0.073;0.033;1.016;-21.990;-1.589;2.860;-0.428;90.0000000;0.0000000;487.000;0.000;0.000;50.69;8192;12.265;0.000;0;97;0;0;0;0;0;0;0;0;0;0;0
1.4.2010;13:37:08.50;0;60.810;-18.209;114.329;2.940;-3.061;185.040;-75;-205;276;0.051;-0.053;-1.013;0.342;0.075;0.034;1.016;-22.295;-1.626;2.973;1.050;90.0000000;0.0000000;487.000;0.000;0.000;50.69;8192;12.264;0.000;0;97;0;0;0;0;0;0;0;0;0;0;0
1.4.2010;13:37:08.72;0;60.994;-17.715;115.387;2.825;-3.331;185.320;6;-253;327;0.049;-0.058;-1.012;0.343;0.085;0.033;1.015;-22.608;-1.448;2.978;-0.252;90.0000000;0.0000000;487.000;0.000;0.000;50.69;8192;12.268;0.000;0;97;0;0;0;0;0;0;0;0;0;0;0
1.4.2010;13:37:08.93;0;61.167;-17.208;116.482;3.078;-3.325;187.630;-90;-140;312;0.054;-0.058;-1.012;0.340;0.089;0.027;1.015;-22.892;-1.402;3.026;1.335;90.0000000;0.0000000;487.000;0.000;0.000;50.69;8192;12.266;0.000;0;97;0;0;0;0;0;0;0;0;0;0;0
1.4.2010;13:37:09.30;0;61.320;-16.682;117.615;3.141;-3.113;187.250;-60;-236;408;0.055;-0.054;-1.012;0.339;0.092;0.024;1.015;-23.182;-1.406;2.954;0.746;90.0000000;0.0000000;487.000;0.000;0.000;50.69;8192;12.199;0.000;0;97;0;0;0;0;0;0;0;0;0;0;0
1.4.2010;13:37:09.44;0;61.732;-15.709;188.400;2.888;-3.130;188.400;-75;-228;409;0.050;-0.055;-1.007;0.338;0.104;0.030;1.010;-23.723;-1.392;2.945;-0.801;90.0000000;0.0000000;487.000;0.000;0.000;50.69;8192;12.230;0.000;0;97;0;0;0;0;0;0;0;0;0;0;0
1.4.2010;13:37:09.52;0;61.767;-15.601;191.040;2.527;-3.342;191.040;-13;-125;307;0.044;-0.058;-1.010;0.346;0.109;0.032;1.013;-23.787;-1.404;2.928;-0.317;90.0000000;0.0000000;487.000;0.000;0.000;50.69;8192;12.262;0.000;0;97;0;0;0;0;0;0;0;0;0;0;0
1.4.2010;13:37:09.72;1;61.901;-15.126;187.020;2.998;-3.256;187.020;14;-233;295;0.052;-0.057;-1.008;0.343;0.116;0.028;1.011;-24.047;-1.453;3.100;2.526;90.0000000;0.0000000;487.000;0.000;0.000;50.69;8192;12.259;0.000;0;97;0;0;0;0;0;0;0;0;0;0;0
1.4.2010;13:37:09.94;1;62.036;-14.610;189.780;2.831;-3.118;189.780;0;-194;338;0.049;-0.054;-1.013;0.350;0.121;0.030;1.015;-24.334;-1.421;2.989;-0.164;90.0000000;0.0000000;487.000;0.000;0.000;50.69;8192;12.257;0.000;0;97;0;0;0;0;0;0;0;0;0;0;0
1.4.2010;13:37:10.14;1;62.175;-14.086;190.220;2.917;-3.182;190.220;-11;-289;381;0.051;-0.056;-1.009;0.349;0.133;0.030;1.012;-24.614;-1.413;3.176;-1.149;90.0000000;0.0000000;487.000;0.000;0.000;50.69;8192;12.256;0.000;0;97;0;0;0;0;0;0;0;0;0;0;0
1.4.2010;13:37:10.35;1;62.278;-13.547;192.310;2.808;-3.331;192.310;-8;-303;359;0.049;-0.058;-1.012;0.355;0.144;0.032;1.014;-24.905;-1.377;3.284;2.366;90.0000000;0.0000000;487.000;0.000;0.000;50.69;8192;12.248;0.000;0;97;0;0;0;0;0;0;0;0;0;0;0
1.4.2010;13:37:10.54;1;62.380;-13.015;191.980;3.061;-3.055;191.980;-85;-205;303;0.053;-0.053;-1.010;0.354;0.148;0.029;1.013;-25.173;-1.354;3.066;0.237;90.0000000;0.0000000;487.000;0.000;0.000;50.69;8192;12.258;0.000;0;97;0;0;0;0;0;0;0;0;0;0;0
1.4.2010;13:37:10.82;2;62.478;-12.472;193.790;2.688;-3.371;193.790;-65;-85;396;0.047;-0.059;-1.013;0.363;0.163;0.033;1.016;-25.451;-1.416;3.094;1.775;90.0000000;0.0000000;487.000;0.000;0.000;50.69;8192;12.257;0.000;0;97;0;0;0;0;0;0;0;0;0;0;0
1.4.2010;13:37:10.96;2;62.572;-11.788;193.410;2.980;-3.227;193.410;-65;-234;306;0.052;-0.056;-1.012;0.361;0.174;0.030;1.015;-25.834;-1.476;3.127;-0.313;90.0000000;0.0000000;487.000;0.000;0.000;50.69;8192;12.253;0.000;0;97;0;0;0;0;0;0;0;0;0;0;0
1.4.2010;13:37:11.16;2;62.628;-11.397;194.010;2.877;-3.101;194.010;35;-255;351;0.050;-0.054;-1.011;0.363;0.180;0.034;1.014;-26.045;-1.518;2.941;-1.055;90.0000000;0.0000000;487.000;0.000;0.000;50.69;8192;12.259;0.000;0;97;0;0;0;0;0;0;0;0;0;0;0
1.4.2010;13:37:11.36;2;62.699;-10.861;195.630;2.888;-3.371;195.630;-5;-267;366;0.050;-0.059;-1.010;0.364;0.192;0.033;1.013;-26.358;-1.585;3.051;-0.118;90.0000000;0.0000000;487.000;0.000;0.000;50.69;8192;12.248;0.000;0;97;0;0;0;0;0;0;0;0;0;0;0
1.4.2010;13:37:11.55;2;62.735;-10.309;196.350;2.808;-3.296;196.350;-40;-211;365;0.049;-0.058;-1.009;0.365;0.201;0.036;1.012;-26.690;-1.647;3.115;0.670;90.0000000;0.0000000;487.000;0.000;0.000;50.69;8192;12.251;0.000;0;97;0;0;0;0;0;0;0;0;0;0;0
1.4.2010;13:37:11.75;3;62.798;-9.772;196.040;2.779;-3.084;196.040;-64;-216;428;0.048;-0.054;-1.012;0.368;0.207;0.034;1.015;-27.029;-1.684;3.215;2.634;90.0000000;0.0000000;487.000;0.000;0.000;50.69;8192;12.248;0.000;0;97;0;0;0;0;0;0;0;0;0;0;0
1.4.2010;13:37:12.02;3;62.826;-9.217;198.060;2.705;-3.159;198.060;-55;-244;277;0.047;-0.055;-1.015;0.374;0.217;0.035;1.017;-27.356;-1.601;3.083;-0.530;90.0000000;0.0000000;487.000;0.000;0.000;50.69;8192;12.247;0.000;0;97;0;0;0;0;0;0;0;0;0;0;0
1.4.2010;13:37:12.16;3;62.844;-8.615;199.460;2.682;-3.159;199.460;-47;-285;437;0.047;-0.055;-1.010;0.370;0.228;0.037;1.012;-27.708;-1.478;3.332;1.083;90.0000000;0.0000000;487.000;0.000;0.000;50.69;8192;12.245;0.000;0;97;0;0;0;0;0;0;0;0;0;0;0
1.4.2010;13:37:12.36;3;62.864;-8.074;198.320;2.722;-3.314;198.320;72;-215;255;0.048;-0.058;-1.010;0.372;0.242;0.036;1.013;-27.959;-1.407;3.142;-1.679;90.0000000;0.0000000;487.000;0.000;0.000;50.69;8192;12.252;0.000;0;97;0;0;0;0;0;0;0;0;0;0;0
1.4.2010;13:37:12.57;3;62.874;-7.584;198.730;2.722;-3.136;198.730;-36;-186;441;0.048;-0.055;-1.010;0.372;0.247;0.036;1.012;-28.233;-1.343;3.202;-0.922;90.0000000;0.0000000;487.000;0.000;0.000;50.69;8192;12.252;0.000;0;97;0;0;0;0;0;0;0;0;0;0;0
1.4.2010;13:37:12.77;4;62.885;-7.033;197.230;2.871;-3.227;197.230;-25;-261;286;0.050;-0.056;-1.010;0.371;0.257;0.033;1.012;-28.506;-1.306;3.246;0.314;90.0000000;0.0000000;487.000;0.000;0.000;50.69;8192;12.249;0.000;0;97;0;0;0;0;0;0;0;0;0;0;0
1.4.2010;13:37:13.02;4;62.901;-6.473;203.900;2.934;-3.423;203.900;-50;-144;364;0.051;-0.060;-1.013;0.375;0.271;0.032;1.016;-28.770;-1.324;3.222;-0.294;90.0000000;0.0000000;487.000;0.000;0.000;50.69;8192;12.249;0.000;0;3;0;0;0;0;0;0;0;0;0;0;0
1.4.2010;13:37:13.18;4;62.916;-5.928;200.934;2.699;-3.090;200.910;-56;-172;331;0.047;-0.054;-1.013;0.378;0.274;0.035;1.015;-29.047;-1.385;3.300;0.604;90.0000000;0.0000000;487.000;0.000;0.000;50.69;8192;12.230;0.000;0;3;0;0;0;0;0;0;0;0;0;0;0
1.4.2010;13:37:13.38;4;62.910;-5.371;201.935;2.940;-3.159;201.810;-55;-278;300;0.051;-0.055;-1.008;0.371;0.287;0.034;1.010;-29.325;-1.339;3.408;0.519;90.0000000;0.0000000;487.000;0.000;0.000;50.69;8192;12.237;0.000;0;3;0;0;0;0;0;0;0;0;0;0;0
1.4.2010;13:37:13.58;4;62.919;-4.799;202.932;2.877;-3.026;201.950;-29;-165;313;0.050;-0.053;-1.009;0.372;0.292;0.035;1.012;-29.592;-1.328;3.448;1.723;90.0000000;0.0000000;487.000;0.000;0.000;50.69;8192;12.245;0.000;0;3;0;0;0;0;0;0;0;0;0;0;0
1.4.2010;13:37:13.80;5;62.914;-4.265;203.925;2.814;-3.296;204.620;10;-250;398;0.049;-0.058;-1.009;0.374;0.308;0.035;1.012;-29.857;-1.354;3.466;-0.181;90.0000000;0.0000000;487.000;0.000;0.000;50.69;8192;12.243;0.000;0;3;0;0;0;0;0;0;0;0;0;0;0
1.4.2010;13:37:14.10;5;62.911;-3.741;204.918;2.734;-3.296;201.480;-10;-160;351;0.048;-0.058;-1.012;0.376;0.316;0.035;1.014;-30.131;-1.384;3.353;-0.140;90.0000000;0.0000000;487.000;0.000;0.000;50.69;8192;12.240;0.000;0;3;0;0;0;0;0;0;0;0;0;0;0
1.4.2010;13:37:14.21;5;62.869;-2.982;206.367;2.843;-2.751;204.620;-59;-200;362;0.050;-0.048;-1.014;0.376;0.321;0.031;1.016;-30.546;-1.476;3.325;-0.684;90.0000000;0.0000000;487.000;0.000;0.000;50.69;8192;12.233;0.000;0;3;0;0;0;0;0;0;0;0;0;0;0
1.4.2010;13:37:14.39;5;62.855;-2.613;206.966;2.877;-3.205;206.190;-85;-190;228;0.050;-0.056;-1.012;0.374;0.334;0.031;1.014;-30.733;-1.513;3.465;1.974;90.0000000;0.0000000;487.000;0.000;0.000;50.69;8192;12.247;0.000;0;97;0;0;0;0;0;0;0;0;0;0;0
1.4.2010;13:37:14.60;6;62.823;-2.030;206.950;2.923;-3.113;206.950;-55;-242;411;0.051;-0.054;-1.011;0.373;0.344;0.030;1.014;-31.035;-1.574;3.394;-0.108;90.0000000;0.0000000;487.000;0.000;0.000;50.69;8192;12.248;0.000;0;97;0;0;0;0;0;0;0;0;0;0;0
1.4.2010;13:37:14.82;6;62.804;-1.483;206.420;3.026;-2.946;206.420;-36;-209;273;0.053;-0.051;-1.009;0.370;0.351;0.030;1.011;-31.360;-1.627;3.401;0.479;90.0000000;0.0000000;487.000;0.000;0.000;50.69;8192;12.247;0.000;0;97;0;0;0;0;0;0;0;0;0;0;0
1.4.2010;13:37:15.08;6;62.773;-0.944;207.120;2.888;-3.314;207.120;-74;-220;329;0.050;-0.058;-1.007;0.368;0.366;0.031;1.010;-31.695;-1.687;3.347;1.811;90.0000000;0.0000000;487.000;0.000;0.000;50.69;8192;12.242;0.000;0;97;0;0;0;0;0;0;0;0;0;0;0
1.4.2010;13:37:15.22;6;62.742;-0.206;207.680;2.779;-2.895;207.680;-5;-219;396;0.048;-0.050;-1.011;0.373;0.371;0.031;1.014;-32.166;-1.705;3.343;-0.375;90.0000000;0.0000000;487.000;0.000;0.000;50.69;8192;12.242;0.000;0;97;0;0;0;0;0;0;0;0;0;0;0
1.4.2010;13:37:15.43;6;62.709;0.178;206.190;2.854;-3.176;206.190;-28;-235;266;0.050;-0.055;-1.008;0.370;0.380;0.031;1.011;-32.388;-1.627;3.280;-1.107;90.0000000;0.0000000;487.000;0.000;0.000;50.69;8192;12.244;0.000;0;97;0;0;0;0;0;0;0;0;0;0;0
1.4.2010;13:37:15.61;7;62.678;0.742;209.050;2.980;-3.285;209.050;28;-253;329;0.052;-0.057;-1.008;0.367;0.393;0.028;1.011;-32.708;-1.522;3.437;0.644;90.0000000;0.0000000;487.000;0.000;0.000;50.69;8192;12.246;0.000;0;97;0;0;0;0;0;0;0;0;0;0;0
1.4.2010;13:37:15.83;7;62.648;1.313;209.780;2.751;-3.325;209.780;-18;-170;351;0.048;-0.058;-1.014;0.373;0.404;0.030;1.016;-33.011;-1.465;3.367;1.429;90.0000000;0.0000000;487.000;0.000;0.000;50.69;8192;12.247;0.000;0;97;0;0;0;0;0;0;0;0;0;0;0
1.4.2010;13:37:16.02;7;62.601;1.843;208.370;2.877;-3.159;208.370;-45;-216;465;0.050;-0.055;-1.012;0.369;0.410;0.029;1.014;-33.291;-1.297;3.455;-0.289;90.0000000;0.0000000;487.000;0.000;0.000;50.69;8192;12.244;0.000;0;97;0;0;0;0;0;0;0;0;0;0;0
1.4.2010;13:37:16.24;7;62.547;2.402;209.448;2.900;-3.118;211.240;-30;-260;351;0.051;-0.054;-1.012;0.366;0.419;0.028;1.015;-33.564;-1.347;3.402;1.270;90.0000000;0.0000000;487.000;0.000;0.000;50.69;8192;12.245;0.000;0;97;0;0;0;0;0;0;0;0;0;0;0
1.4.2010;13:37:16.43;7;62.485;2.981;210.411;2.613;-3.055;212.870;-29;-245;322;0.046;-0.053;-1.009;0.365;0.427;0.033;1.012;-33.834;-1.372;3.512;1.064;90.0000000;0.0000000;487.000;0.000;0.000;50.69;8192;12.243;0.000;0;97;0;0;0;0;0;0;0;0;0;0;0
1.4.2010;13:37:16.64;8;62.424;3.511;211.413;2.670;-3.164;213.630;-25;-361;385;0.047;-0.055;-1.011;0.364;0.440;0.032;1.013;-34.114;-1.380;3.425;0.522;90.0000000;0.0000000;487.000;0.000;0.000;50.69;8192;12.241;0.000;0;97;0;0;0;0;0;0;0;0;0;0;0
1.4.2010;13:37:16.86;8;62.351;4.074;212.415;2.682;-3.118;213.210;28;-282;313;0.047;-0.054;-1.003;0.357;0.447;0.033;1.005;-34.390;-1.372;3.513;-0.573;90.0000000;0.0000000;487.000;0.000;0.000;50.69;8192;12.243;0.000;0;97;0;0;0;0;0;0;0;0;0;0;0
1.4.2010;13:37:17.04;8;62.258;4.607;213.413;2.831;-3.090;214.020;-60;-245;454;0.049;-0.054;-1.008;0.358;0.458;0.029;1.011;-34.674;-1.411;3.459;-0.476;90.0000000;0.0000000;487.000;0.000;0.000;50.69;8192;12.242;0.000;0;97;0;0;0;0;0;0;0;0;0;0;0
1.4.2010;13:37:17.25;8;62.187;5.178;214.426;2.917;-3.072;214.510;-72;-220;367;0.051;-0.054;-1.013;0.359;0.467;0.024;1.016;-34.969;-1.466;3.577;2.032;90.0000000;0.0000000;487.000;0.000;0.000;50.69;8192;12.243;0.000;0;97;0;0;0;0;0;0;0;0;0;0;0
1.4.2010;13:37:17.46;8;62.099;5.685;215.432;2.906;-3.405;215.360;-17;-158;342;0.051;-0.059;-1.007;0.352;0.480;0.026;1.010;-35.264;-1.451;3.587;1.040;90.0000000;0.0000000;487.000;0.000;0.000;50.69;8192;12.239;0.000;0;97;0;0;0;0;0;0;0;0;0;0;0
1.4.2010;13:37:17.64;9;61.969;6.225;216.454;2.722;-3.118;215.970;65;-244;351;0.048;-0.054;-1.008;0.352;0.486;0.028;1.010;-35.551;-1.417;3.590;0.557;90.0000000;0.0000000;487.000;0.000;0.000;50.69;8192;12.236;0.000;0;97;0;0;0;0;0;0;0;0;0;0;0
1.4.2010;13:37:17.85;9;61.844;6.806;217.471;2.699;-3.227;220.940;28;-189;254;0.047;-0.056;-1.007;0.350;0.498;0.028;1.010;-35.839;-1.412;3.525;-0.432;90.0000000;0.0000000;487.000;0.000;0.000;50.69;8192;12.235;0.000;0;97;0;0;0;0;0;0;0;0;0;0;0
1.4.2010;13:37:18.05;9;61.689;7.359;218.445;2.642;-3.268;217.590;39;-288;362;0.046;-0.057;-1.012;0.351;0.509;0.025;1.014;-36.120;-1.393;3.653;-1.020;90.0000000;0.0000000;487.000;0.000;0.000;50.69;8192;12.231;0.000;0;97;0;0;0;0;0;0;0;0;0;0;0
1.4.2010;13:37:18.27;9;61.564;7.908;219.476;3.078;-3.348;220.630;-22;-263;291;0.054;-0.058;-1.012;0.344;0.521;0.018;1.015;-36.411;-1.445;3.645;1.987;90.0000000;0.0000000;487.000;0.000;0.000;50.69;8192;12.238;0.000;0;97;0;0;0;0;0;0;0;0;0;0;0
1.4.2010;13:37:18.47;9;61.419;8.431;220.504;3.049;-3.055;218.940;-20;-215;405;0.053;-0.053;-1.012;0.343;0.524;0.017;1.015;-36.706;-1.483;3.582;0.698;90.0000000;0.0000000;487.000;0.000;0.000;50.69;8192;12.230;0.000;0;97;0;0;0;0;0;0;0;0;0;0;0
1.4.2010;13:37:18.66;10;61.268;8.963;221.487;2.969;-3.296;219.750;-55;-224;262;0.052;-0.058;-1.010;0.337;0.537;0.017;1.013;-37.011;-1.513;3.713;2.005;90.0000000;0.0000000;487.000;0.000;0.000;50.69;8192;12.245;0.000;0;97;0;0;0;0;0;0;0;0;0;0;0
1.4.2010;13:37:18.88;10;61.132;9.499;224.070;2.745;-3.285;224.070;7;-207;266;0.048;-0.057;-1.006;0.333;0.544;0.023;1.008;-37.314;-1.496;3.665;1.954;90.0000000;0.0000000;487.000;0.000;0.000;50.69;8192;12.242;0.000;0;97;0;0;0;0;0;0;0;0;0;0;0
1.4.2010;13:37:19.10;10;60.954;10.000;222.160;2.470;-3.296;222.160;-16;-249;316;0.043;-0.058;-1.008;0.334;0.554;0.024;1.011;-37.612;-1.465;3.769;1.730;90.0000000;0.0000000;487.000;0.000;0.000;50.69;8192;12.246;0.000;0;97;0;0;0;0;0;0;0;0;0;0;0
1.4.2010;13:37:19.29;10;60.710;10.597;223.060;2.791;-3.090;223.060;-29;-220;518;0.049;-0.054;-1.009;0.330;0.560;0.016;1.012;-37.943;-1.363;3.761;1.306;90.0000000;0.0000000;487.000;0.000;0.000;50.69;8192;12.241;0.000;0;97;0;0;0;0;0;0;0;0;0;0;0
1.4.2010;13:37:19.49;10;60.550;11.040;222.580;2.734;-3.130;222.580;-59;-197;361;0.048;-0.055;-1.008;0.325;0.570;0.016;1.011;-38.168;-1.333;3.607;-1.313;90.0000000;0.0000000;487.000;0.000;0.000;50.69;8192;12.241;0.000;0;97;0;0;0;0;0;0;0;0;0;0;0
1.4.2010;13:37:19.69;11;60.329;11.550;223.420;2.670;-3.136;223.420;12;-255;268;0.047;-0.055;-1.009;0.323;0.578;0.015;1.012;-38.442;-1.361;3.694;0.709;90.0000000;0.0000000;487.000;0.000;0.000;50.69;8192;12.242;0.000;0;97;0;0;0;0;0;0;0;0;0;0;0
1.4.2010;13:37:19.89;11;60.136;12.045;224.464;2.934;-3.101;224.010;-28;-213;424;0.051;-0.054;-1.008;0.317;0.586;0.010;1.011;-38.719;-1.386;3.597;1.078;90.0000000;0.0000000;487.000;0.000;0.000;50.69;8192;12.240;0.000;0;97;0;0;0;0;0;0;0;0;0;0;0
1.4.2010;13:37:20.08;11;59.934;12.541;225.508;2.831;-3.164;227.400;-5;-187;306;0.049;-0.055;-1.015;0.320;0.597;0.005;1.017;-39.007;-1.409;3.689;0.257;90.0000000;0.0000000;487.000;0.000;0.000;50.69;8192;12.241;0.000;0;97;0;0;0;0;0;0;0;0;0;0;0
1.4.2010;13:37:20.29;11;59.685;13.048;226.574;2.699;-3.176;226.300;17;-208;309;0.047;-0.055;-1.011;0.313;0.605;0.007;1.013;-39.295;-1.422;3.665;0.567;90.0000000;0.0000000;487.000;0.000;0.000;50.69;8192;12.239;0.000;0;97;0;0;0;0;0;0;0;0;0;0;0
1.4.2010;13:37:20.50;11;59.421;13.525;227.642;2.843;-3.205;225.980;-1;-248;368;0.050;-0.056;-1.010;0.306;0.613;0.003;1.013;-39.583;-1.432;3.577;-0.114;90.0000000;0.0000000;487.000;0.000;0.000;50.69;8192;12.239;0.000;0;97;0;0;0;0;0;0;0;0;0;0;0
1.4.2010;13:37:20.75;12;59.174;14.072;228.699;2.642;-3.205;226.590;-45;-251;386;0.046;-0.056;-1.009;0.303;0.622;0.004;1.011;-39.871;-1.436;3.534;0.757;90.0000000;0.0000000;487.000;0.000;0.000;50.69;8192;12.238;0.000;0;97;0;0;0;0;0;0;0;0;0;0;0
1.4.2010;13:37:20.93;12;58.825;14.652;230.105;2.688;-3.314;225.720;53;-218;250;0.047;-0.058;-1.007;0.294;0.633;0.003;1.009;-40.252;-1.439;3.639;-0.080;90.0000000;0.0000000;487.000;0.000;0.000;50.69;8192;12.231;0.000;0;97;0;0;0;0;0;0;0;0;0;0;0
1.4.2010;13:37:21.11;12;58.591;15.039;230.950;2.699;-3.015;228.340;5;-239;219;0.047;-0.053;-1.012;0.295;0.637;-0.005;1.015;-40.480;-1.438;3.576;0.730;90.0000000;0.0000000;487.000;0.000;0.000;50.69;8192;12.230;0.000;0;97;0;0;0;0;0;0;0;0;0;0;0
1.4.2010;13:37:21.32;12;58.289;15.541;232.077;2.814;-3.084;229.170;-77;-250;376;0.049;-0.054;-1.010;0.286;0.645;-0.008;1.013;-40.779;-1.429;3.586;1.118;90.0000000;0.0000000;487.000;0.000;0.000;50.69;8192;12.231;0.000;0;97;0;0;0;0;0;0;0;0;0;0;0
1.4.2010;13:37:21.52;12;57.993;16.008;233.173;2.688;-3.325;230.630;21;-270;474;0.047;-0.058;-1.010;0.281;0.657;-0.008;1.013;-41.061;-1.417;3.725;2.270;90.0000000;0.0000000;487.000;0.000;0.000;50.69;8192;12.239;0.000;0;97;0;0;0;0;0;0;0;0;0;0;0
1.4.2010;13:37:21.72;13;57.660;16.462;234.298;2.745;-3.377;231.510;109;-85;312;0.048;-0.059;-1.012;0.276;0.666;-0.012;1.015;-41.345;-1.377;3.828;2.290;90.0000000;0.0000000;487.000;0.000;0.000;50.69;8192;12.217;0.000;0;97;0;0;0;0;0;0;0;0;0;0;0
1.4.2010;13:37:21.97;13;57.373;16.899;235.350;2.762;-2.814;232.180;-225;-70;167;0.048;-0.049;-1.008;0.271;0.662;-0.014;1.010;-41.613;-1.305;3.666;1.359;90.0000000;0.0000000;487.000;0.000;0.000;50.69;8192;12.225;0.000;0;97;0;0;0;0;0;0;0;0;0;0;0
1.4.2010;13:37:22.14;13;56.905;17.481;236.743;2.716;-3.038;232.060;-316;-160;218;0.047;-0.053;-1.005;0.260;0.675;-0.015;1.008;-41.929;-1.256;3.690;-0.020;90.0000000;0.0000000;487.000;0.000;0.000;50.69;8192;12.231;0.000;0;97;0;0;0;0;0;0;0;0;0;0;0
1.4.2010;13:37:22.35;13;56.541;17.839;237.669;2.843;-2.952;232.550;330;-500;600;0.050;-0.052;-1.010;0.258;0.681;-0.024;1.013;-42.130;-1.223;3.643;1.642;90.0000000;0.0000000;487.000;0.000;0.000;50.69;8192;12.223;0.000;0;97;0;0;0;0;0;0;0;0;0;0;0
1.4.2010;13:37:22.54;13;56.136;18.235;238.813;2.906;-3.285;233.570;297;-350;271;0.051;-0.057;-1.005;0.245;0.692;-0.024;1.008;-42.374;-1.180;3.844;2.025;90.0000000;0.0000000;487.000;0.000;0.000;50.69;8192;12.228;0.000;0;97;0;0;0;0;0;0;0;0;0;0;0
1.4.2010;13:37:22.74;14;55.691;18.718;239.950;2.670;-3.136;235.330;246;-263;446;0.047;-0.055;-1.010;0.246;0.699;-0.029;1.013;-42.612;-1.099;3.794;1.399;90.0000000;0.0000000;487.000;0.000;0.000;50.69;8192;12.225;0.000;0;97;0;0;0;0;0;0;0;0;0;0;0
1.4.2010;13:37:22.94;14;55.248;19.117;241.067;2.808;-3.227;237.540;-95;-20;241;0.049;-0.056;-1.007;0.236;0.706;-0.032;1.009;-42.826;-1.039;3.761;0.595;90.0000000;0.0000000;487.000;0.000;0.000;50.69;8192;12.230;0.000;0;97;0;0;0;0;0;0;0;0;0;0;0
1.4.2010;13:37:23.14;14;54.749;19.596;242.277;2.653;-3.130;239.170;-317;-202;284;0.046;-0.055;-1.008;0.231;0.712;-0.035;1.011;-43.040;-0.967;3.950;1.401;90.0000000;0.0000000;487.000;0.000;0.000;50.69;8192;12.223;0.000;0;97;0;0;0;0;0;0;0;0;0;0;0
1.4.2010;13:37:23.33;14;54.272;19.961;243.401;2.854;-3.009;236.510;222;-336;357;0.050;-0.052;-1.008;0.222;0.716;-0.044;1.010;-43.222;-0.891;3.724;0.389;90.0000000;0.0000000;487.000;0.000;0.000;50.69;8192;12.221;0.000;0;97;0;0;0;0;0;0;0;0;0;0;0
1.4.2010;13:37:23.58;14;53.810;20.326;244.584;2.653;-3.222;237.230;220;-243;277;0.046;-0.056;-1.013;0.221;0.728;-0.046;1.016;-43.392;-0.805;3.727;0.445;90.0000000;0.0000000;487.000;0.000;0.000;50.69;8192;12.220;0.000;0;97;0;0;0;0;0;0;0;0;0;0;0
1.4.2010;13:37:23.74;15;53.312;20.757;245.947;3.043;-3.130;239.050;257;-268;326;0.053;-0.055;-1.010;0.207;0.732;-0.053;1.012;-43.570;-0.694;3.865;1.586;90.0000000;0.0000000;487.000;0.000;0.000;50.69;8192;12.221;0.000;0;97;0;0;0;0;0;0;0;0;0;0;0
1.4.2010;13:37:23.96;15;52.909;21.100;246.949;2.653;-2.981;238.910;-293;-126;378;0.046;-0.052;-1.007;0.204;0.734;-0.052;1.010;-43.680;-0.611;3.759;0.069;90.0000000;0.0000000;487.000;0.000;0.000;50.69;8192;12.220;0.000;0;97;0;0;0;0;0;0;0;0;0;0;0
1.4.2010;13:37:24.16;15;52.405;21.452;248.163;2.682;-3.147;237.090;170;-248;323;0.047;-0.055;-1.011;0.198;0.744;-0.057;1.013;-43.793;-0.497;3.757;-0.738;90.0000000;0.0000000;487.000;0.000;0.000;50.69;8192;12.213;0.000;0;97;0;0;0;0;0;0;0;0;0;0;0
1.4.2010;13:37:24.38;15;51.885;21.790;249.367;2.705;-3.009;239.980;-9;-225;329;0.047;-0.052;-1.008;0.187;0.745;-0.062;1.010;-43.882;-0.377;3.785;0.698;90.0000000;0.0000000;487.000;0.000;0.000;50.69;8192;12.218;0.000;0;97;0;0;0;0;0;0;0;0;0;0;0
1.4.2010;13:37:24.55;15;51.396;22.168;250.589;2.653;-3.159;243.660;18;-155;381;0.046;-0.055;-1.010;0.182;0.754;-0.067;1.012;-43.946;-0.247;3.766;0.197;90.0000000;0.0000000;487.000;0.000;0.000;50.69;8192;12.231;0.000;0;97;0;0;0;0;0;0;0;0;0;0;0
1.4.2010;13:37:24.79;16;50.909;22.537;251.801;2.470;-3.090;241.950;-42;-90;474;0.043;-0.054;-1.006;0.174;0.758;-0.065;1.008;-43.983;-0.112;3.885;-1.963;90.0000000;0.0000000;487.000;0.000;0.000;50.69;8192;12.213;0.000;0;97;0;0;0;0;0;0;0;0;0;0;0
1.4.2010;13:37:25.02;16;50.450;22.857;252.997;2.596;-3.210;243.560;9;-157;422;0.045;-0.056;-1.011;0.168;0.766;-0.073;1.013;-43.991;0.027;3.765;-0.007;90.0000000;0.0000000;487.000;0.000;0.000;50.69;8192;12.223;0.000;0;97;0;0;0;0;0;0;0;0;0;0;0
1.4.2010;13:37:25.18;16;49.949;23.181;254.217;2.745;-3.205;244.300;-7;-265;290;0.048;-0.056;-1.013;0.162;0.772;-0.081;1.016;-43.970;0.182;3.844;0.824;90.0000000;0.0000000;487.000;0.000;0.000;50.69;8192;12.214;0.000;0;97;0;0;0;0;0;0;0;0;0;0;0
1.4.2010;13:37:25.39;16;49.403;23.486;255.518;2.734;-3.285;243.700;-29;-311;327;0.048;-0.057;-1.010;0.152;0.777;-0.082;1.013;-43.915;0.350;3.804;0.630;90.0000000;0.0000000;487.000;0.000;0.000;50.69;8192;12.215;0.000;0;97;0;0;0;0;0;0;0;0;0;0;0
1.4.2010;13:37:25.58;16;48.870;23.782;256.800;2.825;-3.061;244.460;-10;-68;351;0.049;-0.053;-1.010;0.143;0.778;-0.089;1.012;-43.821;0.529;3.937;-0.769;90.0000000;0.0000000;487.000;0.000;0.000;50.69;8192;12.221;0.000;0;3;0;0;0;0;0;0;0;0;0;0;0
1.4.2010;13:37:25.79;17;48.403;24.109;257.921;2.642;-3.268;246.780;-110;-403;504;0.046;-0.057;-1.009;0.138;0.787;-0.088;1.012;-43.707;0.692;3.919;-0.120;90.0000000;0.0000000;487.000;0.000;0.000;50.69;8192;12.227;0.000;0;3;0;0;0;0;0;0;0;0;0;0;0
1.4.2010;13:37:26.02;17;47.877;24.412;259.191;2.699;-3.285;247.040;-89;-244;404;0.047;-0.057;-1.008;0.128;0.792;-0.093;1.010;-43.548;0.873;3.913;2.698;90.0000000;0.0000000;487.000;0.000;0.000;50.69;8192;12.226;0.000;0;97;0;0;0;0;0;0;0;0;0;0;0
1.4.2010;13:37:26.19;17;47.345;24.710;260.444;2.355;-3.182;246.830;28;-158;424;0.041;-0.056;-1.009;0.126;0.796;-0.095;1.011;-43.353;1.062;3.867;1.005;90.0000000;0.0000000;487.000;0.000;0.000;50.69;8192;12.222;0.000;0;97;0;0;0;0;0;0;0;0;0;0;0
1.4.2010;13:37:26.39;17;46.766;24.996;261.748;2.579;-3.302;247.370;79;-39;316;0.045;-0.058;-1.011;0.117;0.802;-0.104;1.014;-43.112;1.270;4.012;2.042;90.0000000;0.0000000;487.000;0.000;0.000;50.69;8192;12.221;0.000;0;97;0;0;0;0;0;0;0;0;0;0;0
1.4.2010;13:37:26.61;18;46.232;25.221;262.976;2.642;-3.296;247.760;48;-232;441;0.046;-0.058;-1.007;0.106;0.805;-0.106;1.010;-42.837;1.477;3.900;1.539;90.0000000;0.0000000;487.000;0.000;0.000;50.69;8192;12.222;0.000;0;97;0;0;0;0;0;0;0;0;0;0;0
1.4.2010;13:37:26.82;18;45.677;25.505;264.259;2.688;-3.118;249.840;-29;-440;266;0.047;-0.054;-1.004;0.096;0.804;-0.110;1.006;-42.515;1.696;3.998;1.044;90.0000000;0.0000000;487.000;0.000;0.000;50.69;8192;12.214;0.000;0;97;0;0;0;0;0;0;0;0;0;0;0
1.4.2010;13:37:27.02;18;45.123;25.740;265.559;2.470;-3.205;249.470;-114;-181;443;0.043;-0.056;-1.009;0.094;0.812;-0.116;1.011;-42.142;1.928;3.920;0.801;90.0000000;0.0000000;487.000;0.000;0.000;50.69;8192;12.215;0.000;0;97;0;0;0;0;0;0;0;0;0;0;0
1.4.2010;13:37:27.21;18;44.538;25.920;266.899;2.670;-3.044;250.940;-60;-260;276;0.047;-0.053;-1.011;0.086;0.813;-0.124;1.014;-41.722;2.168;4.019;0.105;90.0000000;0.0000000;487.000;0.000;0.000;50.69;8192;12.196;0.000;0;97;0;0;0;0;0;0;0;0;0;0;0
1.4.2010;13:37:27.43;18;43.903;26.128;268.267;2.562;-3.118;250.500;-6;-144;279;0.045;-0.054;-1.012;0.079;0.818;-0.128;1.015;-41.228;2.433;3.994;-0.661;90.0000000;0.0000000;487.000;0.000;0.000;50.69;8192;12.195;0.000;0;97;0;0;0;0;0;0;0;0;0;0;0
1.4.2010;13:37:27.63;19;43.289;26.376;269.544;2.745;-3.193;252.360;-95;-218;228;0.048;-0.056;-1.008;0.064;0.820;-0.132;1.011;-40.713;2.627;4.050;1.854;90.0000000;0.0000000;487.000;0.000;0.000;50.69;8192;12.210;0.000;0;97;0;0;0;0;0;0;0;0;0;0;0
1.4.2010;13:37:27.83;19;42.640;26.544;270.911;2.688;-3.302;251.780;14;-173;259;0.047;-0.058;-1.006;0.055;0.824;-0.134;1.008;-40.166;2.746;3.994;-1.071;90.0000000;0.0000000;487.000;0.000;0.000;50.69;8192;12.221;0.000;0;97;0;0;0;0;0;0;0;0;0;0;0
1.4.2010;13:37:28.02;19;41.985;26.753;272.272;2.613;-3.147;252.880;-92;-232;449;0.046;-0.055;-1.008;0.047;0.826;-0.140;1.010;-39.634;2.274;4.063;0.974;90.0000000;0.0000000;487.000;0.000;0.000;50.69;8192;12.219;0.000;0;97;0;0;0;0;0;0;0;0;0;0;0
1.4.2010;13:37:28.22;19;41.347;26.902;273.576;2.607;-2.998;253.490;31;-244;415;0.046;-0.052;-1.006;0.040;0.826;-0.145;1.009;-39.216;1.853;4.148;0.963;90.0000000;0.0000000;487.000;0.000;0.000;50.69;8192;12.217;0.000;0;97;0;0;0;0;0;0;0;0;0;0;0
1.4.2010;13:37:28.43;19;40.715;27.084;274.898;2.596;-3.044;255.870;-119;-289;499;0.045;-0.053;-1.010;0.034;0.829;-0.152;1.012;-38.887;1.489;4.229;3.311;90.0000000;0.0000000;487.000;0.000;0.000;50.69;8192;12.214;0.000;0;97;0;0;0;0;0;0;0;0;0;0;0
1.4.2010;13:37:28.64;20;40.088;27.215;276.238;2.716;-2.969;258.050;3;-280;274;0.047;-0.052;-1.005;0.021;0.829;-0.155;1.008;-38.541;1.736;4.088;-0.314;90.0000000;0.0000000;487.000;0.000;0.000;50.69;8192;12.203;0.000;0;97;0;0;0;0;0;0;0;0;0;0;0
1.4.2010;13:37:28.85;20;39.388;27.401;277.577;2.613;-2.860;255.700;-32;-332;392;0.046;-0.050;-1.012;0.016;0.834;-0.164;1.014;-38.222;1.424;4.085;0.720;90.0000000;0.0000000;487.000;0.000;0.000;50.69;8192;12.218;0.000;0;97;0;0;0;0;0;0;0;0;0;0;0
1.4.2010;13:37:29.05;20;38.694;27.498;278.939;2.688;-3.015;256.310;-53;-249;250;0.047;-0.053;-1.010;0.004;0.835;-0.169;1.012;-37.947;1.281;4.121;0.956;90.0000000;0.0000000;487.000;0.000;0.000;50.69;8192;12.202;0.000;0;97;0;0;0;0;0;0;0;0;0;0;0
1.4.2010;13:37:29.25;20;38.075;27.620;280.282;2.751;-2.797;256.690;84;-205;355;0.048;-0.049;-1.008;-0.004;0.834;-0.174;1.011;-37.665;1.447;4.130;-0.107;90.0000000;0.0000000;487.000;0.000;0.000;50.69;8192;12.218;0.000;0;97;0;0;0;0;0;0;0;0;0;0;0
1.4.2010;13:37:29.44;20;37.457;27.780;281.545;2.653;-3.159;258.480;-125;-198;381;0.046;-0.055;-1.010;-0.012;0.842;-0.177;1.013;-37.347;1.774;4.270;-0.424;90.0000000;0.0000000;487.000;0.000;0.000;50.69;8192;12.205;0.000;0;97;0;0;0;0;0;0;0;0;0;0;0
1.4.2010;13:37:29.66;21;36.783;27.868;282.920;2.498;-3.360;258.010;-20;-193;431;0.044;-0.059;-1.008;-0.021;0.845;-0.177;1.011;-36.949;2.119;4.227;-1.732;90.0000000;0.0000000;487.000;0.000;0.000;50.69;8192;12.199;0.000;0;97;0;0;0;0;0;0;0;0;0;0;0
1.4.2010;13:37:29.86;21;36.133;27.958;284.230;2.481;-3.101;258.740;-127;-33;276;0.043;-0.054;-1.010;-0.027;0.844;-0.183;1.012;-36.522;2.078;4.238;1.317;90.0000000;0.0000000;487.000;0.000;0.000;50.69;8192;12.216;0.000;0;97;0;0;0;0;0;0;0;0;0;0;0
1.4.2010;13:37:30.10;21;35.438;28.022;285.600;2.544;-3.268;259.220;-46;-193;291;0.044;-0.057;-1.010;-0.037;0.847;-0.188;1.012;-36.104;1.993;4.355;1.572;90.0000000;0.0000000;487.000;0.000;0.000;50.69;8192;12.217;0.000;0;97;0;0;0;0;0;0;0;0;0;0;0
1.4.2010;13:37:30.25;21;34.742;28.133;287.051;2.590;-3.423;261.110;30;-276;448;0.045;-0.060;-1.008;-0.050;0.851;-0.190;1.010;-35.643;2.236;4.277;-1.394;90.0000000;0.0000000;487.000;0.000;0.000;50.69;8192;12.217;0.000;0;97;0;0;0;0;0;0;0;0;0;0;0
1.4.2010;13:37:30.47;21;34.095;28.137;288.382;2.573;-3.130;263.810;194;-223;396;0.045;-0.055;-1.010;-0.056;0.848;-0.199;1.012;-35.224;1.892;4.302;1.156;90.0000000;0.0000000;487.000;0.000;0.000;50.69;8192;12.207;0.000;0;97;0;0;0;0;0;0;0;0;0;0;0
1.4.2010;13:37:30.68;22;33.440;28.180;289.727;2.688;-3.250;261.460;-164;-10;478;0.047;-0.057;-1.012;-0.064;0.850;-0.206;1.015;-34.893;1.519;4.321;1.345;90.0000000;0.0000000;487.000;0.000;0.000;50.69;8192;12.219;0.000;0;97;0;0;0;0;0;0;0;0;0;0;0
1.4.2010;13:37:30.86;22;32.764;28.233;291.128;2.670;-3.084;262.770;-91;-124;341;0.047;-0.054;-1.007;-0.075;0.846;-0.209;1.010;-34.585;1.368;4.304;0.773;90.0000000;0.0000000;487.000;0.000;0.000;50.69;8192;12.201;0.000;0;97;0;0;0;0;0;0;0;0;0;0;0
1.4.2010;13:37:31.07;22;32.104;28.233;292.398;2.797;-3.055;262.870;-27;-81;296;0.049;-0.053;-1.009;-0.084;0.847;-0.216;1.012;-34.294;1.641;4.313;-1.193;90.0000000;0.0000000;487.000;0.000;0.000;50.69;8192;12.199;0.000;0;97;0;0;0;0;0;0;0;0;0;0;0
1.4.2010;13:37:31.27;22;31.373;28.263;293.802;2.779;-3.055;263.850;35;-187;236;0.048;-0.053;-1.007;-0.096;0.846;-0.220;1.009;-33.956;1.635;4.275;0.833;90.0000000;0.0000000;487.000;0.000;0.000;50.69;8192;12.209;0.000;0;97;0;0;0;0;0;0;0;0;0;0;0
1.4.2010;13:37:31.49;22;30.698;28.228;295.124;2.659;-3.279;263.640;-45;-303;436;0.046;-0.057;-1.010;-0.102;0.851;-0.224;1.013;-33.610;1.862;4.267;-1.392;90.0000000;0.0000000;487.000;0.000;0.000;50.69;8192;12.202;0.000;0;97;0;0;0;0;0;0;0;0;0;0;0
1.4.2010;13:37:31.68;23;29.919;28.297;296.625;2.579;-3.164;264.390;-361;-115;147;0.045;-0.055;-1.012;-0.110;0.850;-0.231;1.014;-33.239;1.867;4.402;2.452;90.0000000;0.0000000;487.000;0.000;0.000;50.69;8192;12.212;0.000;0;97;0;0;0;0;0;0;0;0;0;0;0
1.4.2010;13:37:31.89;23;29.281;28.209;297.813;2.389;-3.176;266.160;-76;-175;213;0.042;-0.055;-1.006;-0.119;0.847;-0.229;1.008;-32.831;2.017;4.298;-0.482;90.0000000;0.0000000;487.000;0.000;0.000;50.69;8192;12.184;0.000;0;97;0;0;0;0;0;0;0;0;0;0;0
1.4.2010;13:37:32.08;23;28.637;28.097;299.026;2.670;-2.918;265.340;-125;-165;624;0.047;-0.051;-1.010;-0.128;0.842;-0.241;1.012;-32.433;1.946;4.458;2.394;90.0000000;0.0000000;487.000;0.000;0.000;50.69;8192;12.137;0.000;0;97;0;0;0;0;0;0;0;0;0;0;0
1.4.2010;13:37:32.29;23;27.924;28.001;300.490;2.481;-3.176;267.090;265;-277;-444;0.043;-0.055;-1.006;-0.136;0.844;-0.241;1.009;-31.984;2.270;4.353;-1.917;90.0000000;0.0000000;487.000;0.000;0.000;50.69;8192;12.209;0.000;0;97;0;0;0;0;0;0;0;0;0;0;0
1.4.2010;13:37:32.50;23;27.123;27.993;302.049;2.653;-2.895;266.630;-53;-101;437;0.046;-0.050;-1.006;-0.148;0.839;-0.251;1.009;-31.561;1.912;4.378;1.622;90.0000000;0.0000000;487.000;0.000;0.000;50.69;8192;12.213;0.000;0;97;0;0;0;0;0;0;0;0;0;0;0
1.4.2010;13:37:32.69;24;26.493;27.887;303.330;2.705;-3.038;267.100;94;-132;569;0.047;-0.053;-1.010;-0.158;0.841;-0.258;1.013;-31.206;1.645;4.451;1.364;90.0000000;0.0000000;487.000;0.000;0.000;50.69;8192;12.202;0.000;0;129;0;0;0;0;0;0;0;0;0;0;0
1.4.2010;13:37:32.91;24;25.799;27.747;304.726;2.659;-2.963;267.660;-27;-220;426;0.046;-0.052;-1.007;-0.166;0.838;-0.260;1.009;-30.882;1.477;4.328;0.504;90.0000000;0.0000000;487.000;0.000;0.000;50.69;8192;12.205;0.000;0;129;0;0;0;0;0;0;0;0;0;0;0
1.4.2010;13:37:33.10;24;25.197;27.619;306.034;2.625;-3.113;268.560;70;-340;411;0.046;-0.054;-1.006;-0.173;0.838;-0.264;1.009;-30.593;1.441;4.440;0.984;90.0000000;0.0000000;487.000;0.000;0.000;50.69;8192;12.225;0.000;0;1;0;0;0;0;0;0;0;0;0;0;0
1.4.2010;13:37:33.32;24;24.500;27.535;269.190;2.808;-3.239;269.190;-11;-166;353;0.049;-0.056;-1.010;-0.187;0.840;-0.271;1.012;-30.270;1.629;4.457;0.485;90.0000000;0.0000000;487.000;0.000;0.000;50.69;8192;12.229;0.000;0;97;0;0;0;0;0;0;0;0;0;0;0
1.4.2010;13:37:33.52;24;23.796;27.440;269.450;2.705;-3.164;269.450;-59;-307;391;0.047;-0.055;-1.006;-0.195;0.836;-0.271;1.009;-29.898;1.863;4.457;0.981;90.0000000;0.0000000;487.000;0.000;0.000;50.69;8192;12.227;0.000;0;97;0;0;0;0;0;0;0;0;0;0;0
1.4.2010;13:37:33.72;25;23.142;27.325;270.730;2.573;-2.803;270.730;-85;-146;342;0.045;-0.049;-1.009;-0.201;0.830;-0.280;1.011;-29.501;2.068;4.431;0.113;90.0000000;0.0000000;487.000;0.000;0.000;50.69;8192;12.225;0.000;0;97;0;0;0;0;0;0;0;0;0;0;0
1.4.2010;13:37:33.91;25;22.480;27.189;270.550;2.625;-3.015;270.550;-92;-204;490;0.046;-0.053;-1.009;-0.211;0.830;-0.284;1.011;-29.063;2.186;4.563;0.660;90.0000000;0.0000000;487.000;0.000;0.000;50.69;8192;12.228;0.000;0;97;0;0;0;0;0;0;0;0;0;0;0
1.4.2010;13:37:34.13;25;21.841;27.048;271.770;2.705;-3.227;271.770;-50;-229;284;0.047;-0.056;-1.006;-0.222;0.831;-0.286;1.009;-28.613;2.257;4.599;1.151;90.0000000;0.0000000;487.000;0.000;0.000;50.69;8192;12.224;0.000;0;97;0;0;0;0;0;0;0;0;0;0;0
1.4.2010;13:37:34.32;25;21.214;26.923;272.411;2.779;-3.090;271.660;-65;-230;295;0.048;-0.054;-1.012;-0.229;0.830;-0.295;1.014;-28.158;2.119;4.561;1.179;90.0000000;0.0000000;487.000;0.000;0.000;50.69;8192;12.224;0.000;0;97;0;0;0;0;0;0;0;0;0;0;0
1.4.2010;13:37:34.52;25;20.585;26.795;273.725;2.544;-3.205;272.790;-31;-267;277;0.044;-0.056;-1.008;-0.236;0.827;-0.295;1.011;-27.746;1.955;4.441;-0.653;90.0000000;0.0000000;487.000;0.000;0.000;50.69;8192;12.224;0.000;0;97;0;0;0;0;0;0;0;0;0;0;0
1.4.2010;13:37:34.74;26;19.952;26.637;275.070;2.636;-2.969;273.520;-34;-191;362;0.046;-0.052;-1.006;-0.247;0.821;-0.299;1.009;-27.316;2.172;4.502;-1.989;90.0000000;0.0000000;487.000;0.000;0.000;50.69;8192;12.224;0.000;0;97;0;0;0;0;0;0;0;0;0;0;0
1.4.2010;13:37:34.94;26;19.328;26.429;276.372;2.636;-2.992;273.620;-23;-197;311;0.046;-0.052;-1.006;-0.255;0.818;-0.304;1.008;-26.914;1.829;4.608;0.500;90.0000000;0.0000000;487.000;0.000;0.000;50.69;8192;12.216;0.000;0;97;0;0;0;0;0;0;0;0;0;0;0
1.4.2010;13:37:35.13;26;18.686;26.292;277.741;2.401;-3.113;274.880;67;-235;346;0.042;-0.054;-1.013;-0.258;0.820;-0.313;1.015;-26.563;1.565;4.519;0.992;90.0000000;0.0000000;487.000;0.000;0.000;50.69;8192;12.212;0.000;0;97;0;0;0;0;0;0;0;0;0;0;0
1.4.2010;13:37:35.35;26;18.097;26.074;279.024;2.751;-2.952;276.380;-56;-303;276;0.048;-0.052;-1.010;-0.273;0.812;-0.317;1.012;-26.262;1.448;4.544;0.194;90.0000000;0.0000000;487.000;0.000;0.000;50.69;8192;12.217;0.000;0;97;0;0;0;0;0;0;0;0;0;0;0
1.4.2010;13:37:35.54;26;17.502;25.846;280.343;2.682;-3.084;274.960;-4;-59;461;0.047;-0.054;-1.008;-0.280;0.811;-0.317;1.011;-25.972;1.475;4.604;1.149;90.0000000;0.0000000;487.000;0.000;0.000;50.69;8192;12.209;0.000;0;97;0;0;0;0;0;0;0;0;0;0;0
1.4.2010;13:37:35.75;27;16.900;25.577;281.664;2.544;-2.832;275.620;-133;60;308;0.044;-0.049;-1.008;-0.286;0.802;-0.323;1.010;-25.643;1.725;4.658;0.754;90.0000000;0.0000000;487.000;0.000;0.000;50.69;8192;12.215;0.000;0;97;0;0;0;0;0;0;0;0;0;0;0
1.4.2010;13:37:35.96;27;16.351;25.292;282.913;2.579;-3.130;276.250;-7;-478;422;0.045;-0.055;-1.010;-0.295;0.804;-0.328;1.013;-25.263;2.024;4.637;0.974;90.0000000;0.0000000;487.000;0.000;0.000;50.69;8192;12.212;0.000;0;97;0;0;0;0;0;0;0;0;0;0;0
1.4.2010;13:37:36.14;27;15.775;24.973;284.173;2.768;-3.055;276.880;111;-36;418;0.048;-0.053;-1.012;-0.306;0.798;-0.334;1.014;-24.803;2.411;4.679;0.016;90.0000000;0.0000000;487.000;0.000;0.000;50.69;8192;12.204;0.000;0;97;0;0;0;0;0;0;0;0;0;0;0
1.4.2010;13:37:36.36;27;15.208;24.639;285.464;2.653;-3.250;277.560;98;-205;313;0.046;-0.057;-1.010;-0.312;0.795;-0.336;1.012;-24.310;2.421;4.673;0.336;90.0000000;0.0000000;487.000;0.000;0.000;50.69;8192;12.211;0.000;0;97;0;0;0;0;0;0;0;0;0;0;0
1.4.2010;13:37:36.55;27;14.581;24.291;286.873;2.516;-3.015;277.930;-191;-331;260;0.044;-0.053;-1.010;-0.319;0.786;-0.342;1.013;-23.784;2.211;4.660;0.623;90.0000000;0.0000000;487.000;0.000;0.000;50.69;8192;12.213;0.000;0;97;0;0;0;0;0;0;0;0;0;0;0
1.4.2010;13:37:36.77;28;14.091;23.990;287.992;2.510;-3.009;278.600;16;-408;390;0.044;-0.052;-1.010;-0.326;0.781;-0.347;1.012;-23.398;1.977;4.712;0.519;90.0000000;0.0000000;487.000;0.000;0.000;50.69;8192;12.214;0.000;0;97;0;0;0;0;0;0;0;0;0;0;0
1.4.2010;13:37:37.10;28;13.547;23.612;289.282;2.464;-3.015;278.860;-132;-434;342;0.043;-0.053;-1.013;-0.332;0.777;-0.353;1.015;-23.029;1.729;4.748;1.836;90.0000000;0.0000000;487.000;0.000;0.000;50.69;8192;12.215;0.000;0;97;0;0;0;0;0;0;0;0;0;0;0
1.4.2010;13:37:37.19;28;13.061;23.240;290.517;2.527;-3.084;278.940;25;-170;483;0.044;-0.054;-1.013;-0.340;0.772;-0.357;1.015;-22.642;1.887;4.791;1.620;90.0000000;0.0000000;487.000;0.000;0.000;50.69;8192;12.215;0.000;0;97;0;0;0;0;0;0;0;0;0;0;0
1.4.2010;13:37:37.39;28;12.524;22.897;291.822;2.688;-3.314;280.160;59;-411;316;0.047;-0.058;-1.008;-0.352;0.769;-0.355;1.011;-22.173;2.244;4.732;-0.941;90.0000000;0.0000000;487.000;0.000;0.000;50.69;8192;12.205;0.000;0;97;0;0;0;0;0;0;0;0;0;0;0
1.4.2010;13:37:37.57;29;12.058;22.552;292.963;2.613;-2.872;280.090;62;-390;299;0.046;-0.050;-1.010;-0.356;0.757;-0.363;1.012;-21.757;2.092;4.793;-0.367;90.0000000;0.0000000;487.000;0.000;0.000;50.69;8192;12.217;0.000;0;97;0;0;0;0;0;0;0;0;0;0;0
1.4.2010;13:37:37.77;29;11.560;22.199;294.154;2.705;-3.205;280.960;-116;-17;399;0.047;-0.056;-1.011;-0.365;0.755;-0.367;1.013;-21.365;1.862;4.697;-0.437;90.0000000;0.0000000;487.000;0.000;0.000;50.69;8192;12.209;0.000;0;97;0;0;0;0;0;0;0;0;0;0;0
1.4.2010;13:37:37.97;29;11.057;21.763;295.361;2.533;-2.969;280.580;-27;39;423;0.044;-0.052;-1.013;-0.368;0.746;-0.372;1.015;-21.017;1.636;4.807;0.592;90.0000000;0.0000000;487.000;0.000;0.000;50.69;8192;12.215;0.000;0;97;0;0;0;0;0;0;0;0;0;0;0
1.4.2010;13:37:38.29;29;10.600;21.336;296.562;2.510;-3.159;282.270;22;-333;315;0.044;-0.055;-1.008;-0.375;0.741;-0.371;1.010;-20.686;1.653;4.833;0.885;90.0000000;0.0000000;487.000;0.000;0.000;50.69;8192;12.209;0.000;0;97;0;0;0;0;0;0;0;0;0;0;0
1.4.2010;13:37:38.44;29;9.985;20.778;298.267;2.699;-3.182;282.870;34;-214;377;0.047;-0.056;-1.008;-0.389;0.732;-0.378;1.011;-20.151;1.953;4.855;0.099;90.0000000;0.0000000;487.000;0.000;0.000;50.69;8192;12.203;0.000;0;97;0;0;0;0;0;0;0;0;0;0;0
1.4.2010;13:37:38.68;30;9.606;20.449;299.220;2.699;-3.331;282.850;-20;-255;241;0.047;-0.058;-1.004;-0.394;0.728;-0.376;1.007;-19.824;2.012;4.760;-0.422;90.0000000;0.0000000;487.000;0.000;0.000;50.69;8192;12.215;0.000;0;97;0;0;0;0;0;0;0;0;0;0;0
1.4.2010;13:37:38.82;30;9.075;19.933;300.668;2.682;-3.325;283.920;41;-424;406;0.047;-0.058;-1.010;-0.402;0.721;-0.385;1.012;-19.321;1.986;4.693;-0.918;90.0000000;0.0000000;487.000;0.000;0.000;50.69;8192;12.213;0.000;0;97;0;0;0;0;0;0;0;0;0;0;0
1.4.2010;13:37:39.02;30;8.771;19.661;301.476;2.791;-2.843;283.380;-25;44;353;0.049;-0.050;-1.010;-0.408;0.709;-0.392;1.012;-19.055;1.824;4.728;0.796;90.0000000;0.0000000;487.000;0.000;0.000;50.69;8192;12.208;0.000;0;97;0;0;0;0;0;0;0;0;0;0;0
1.4.2010;13:37:39.19;30;8.457;19.310;302.454;2.470;-2.860;284.450;-95;-355;279;0.043;-0.050;-1.006;-0.408;0.703;-0.390;1.008;-18.761;1.802;4.899;1.996;90.0000000;0.0000000;487.000;0.000;0.000;50.69;8192;12.213;0.000;0;97;0;0;0;0;0;0;0;0;0;0;0
1.4.2010;13:37:39.46;30;8.046;18.859;303.584;2.453;-2.946;284.750;-65;-43;289;0.043;-0.051;-1.007;-0.413;0.697;-0.395;1.009;-18.387;1.938;4.935;2.561;90.0000000;0.0000000;487.000;0.000;0.000;50.69;8192;12.212;0.000;0;97;0;0;0;0;0;0;0;0;0;0;0
1.4.2010;13:37:39.68;31;7.542;18.275;305.071;2.642;-2.877;285.640;18;-63;410;0.046;-0.050;-1.010;-0.423;0.686;-0.402;1.012;-17.834;2.213;4.803;-0.237;90.0000000;0.0000000;487.000;0.000;0.000;50.69;8192;12.215;0.000;0;97;0;0;0;0;0;0;0;0;0;0;0
1.4.2010;13:37:39.83;31;7.118;17.770;306.322;2.487;-2.963;285.950;43;-240;350;0.043;-0.052;-1.008;-0.428;0.679;-0.404;1.010;-17.351;2.196;4.891;0.340;90.0000000;0.0000000;487.000;0.000;0.000;50.69;8192;12.211;0.000;0;97;0;0;0;0;0;0;0;0;0;0;0
1.4.2010;13:37:40.05;31;6.831;17.417;307.166;2.791;-2.872;286.430;-101;-42;281;0.049;-0.050;-1.008;-0.438;0.673;-0.408;1.011;-17.032;2.127;4.913;0.739;90.0000000;0.0000000;487.000;0.000;0.000;50.69;8192;12.210;0.000;0;97;0;0;0;0;0;0;0;0;0;0;0
1.4.2010;13:37:40.21;31;6.485;16.884;308.379;2.659;-2.963;286.990;59;-426;475;0.046;-0.052;-1.007;-0.442;0.664;-0.410;1.010;-16.534;2.200;4.915;0.849;90.0000000;0.0000000;487.000;0.000;0.000;50.69;8192;12.210;0.000;0;97;0;0;0;0;0;0;0;0;0;0;0
1.4.2010;13:37:40.43;31;6.181;16.480;309.372;2.636;-3.015;287.860;32;-543;356;0.046;-0.053;-1.012;-0.446;0.659;-0.416;1.014;-16.173;2.017;4.984;1.013;90.0000000;0.0000000;487.000;0.000;0.000;50.69;8192;12.207;0.000;0;97;0;0;0;0;0;0;0;0;0;0;0
1.4.2010;13:37:40.63;32;5.810;15.930;310.621;2.550;-3.061;288.920;-35;-416;409;0.044;-0.053;-1.010;-0.450;0.652;-0.417;1.012;-15.744;1.781;4.931;0.833;90.0000000;0.0000000;487.000;0.000;0.000;50.69;8192;12.209;0.000;0;97;0;0;0;0;0;0;0;0;0;0;0
1.4.2010;13:37:40.83;32;5.492;15.477;311.632;2.562;-2.969;288.850;-58;-196;308;0.045;-0.052;-1.007;-0.456;0.640;-0.418;1.009;-15.333;2.471;4.975;-1.936;90.0000000;0.0000000;487.000;0.000;0.000;50.69;8192;12.211;0.000;0;97;0;0;0;0;0;0;0;0;0;0;0
1.4.2010;13:37:41.11;32;5.182;14.985;312.686;2.797;-3.285;288.860;-101;-26;352;0.049;-0.057;-1.010;-0.465;0.638;-0.422;1.013;-14.861;2.345;4.942;0.238;90.0000000;0.0000000;487.000;0.000;0.000;50.69;8192;12.218;0.000;0;97;0;0;0;0;0;0;0;0;0;0;0
1.4.2010;13:37:41.27;32;4.722;14.232;314.284;2.550;-3.061;289.700;-98;43;330;0.044;-0.053;-1.008;-0.466;0.622;-0.426;1.010;-13.998;3.517;5.046;1.101;90.0000000;0.0000000;487.000;0.000;0.000;50.69;8192;12.211;0.000;0;97;0;0;0;0;0;0;0;0;0;0;0
1.4.2010;13:37:41.46;32;4.511;13.813;315.041;2.625;-2.872;290.200;-100;17;225;0.046;-0.050;-1.010;-0.472;0.613;-0.431;1.012;-13.456;4.114;4.927;-0.620;90.0000000;0.0000000;487.000;0.000;0.000;50.69;8192;12.216;0.000;0;97;0;0;0;0;0;0;0;0;0;0;0
1.4.2010;13:37:41.66;33;4.199;13.223;316.186;2.470;-2.992;291.210;-14;-180;449;0.043;-0.052;-1.007;-0.473;0.604;-0.431;1.009;-12.493;5.009;4.952;0.956;90.0000000;0.0000000;487.000;0.000;0.000;50.69;8192;12.220;0.000;0;97;0;0;0;0;0;0;0;0;0;0;0
1.4.2010;13:37:41.83;33;3.900;12.665;317.218;2.516;-3.044;291.360;-66;-309;306;0.044;-0.053;-1.009;-0.479;0.595;-0.435;1.012;-11.435;5.789;4.978;0.515;90.0000000;0.0000000;487.000;0.000;0.000;50.69;8192;12.210;0.000;0;97;0;0;0;0;0;0;0;0;0;0;0
1.4.2010;13:37:42.04;33;3.650;12.177;318.147;2.470;-2.952;292.320;-3;-417;363;0.043;-0.052;-1.012;-0.484;0.585;-0.440;1.014;-10.400;5.959;4.859;-0.668;90.0000000;0.0000000;487.000;0.000;0.000;50.69;8192;12.209;0.000;0;97;0;0;0;0;0;0;0;0;0;0;0
1.4.2010;13:37:42.24;33;3.356;11.582;319.202;2.355;-2.906;292.990;-61;-325;283;0.041;-0.051;-1.008;-0.487;0.574;-0.439;1.010;-9.122;6.816;5.070;-0.835;90.0000000;0.0000000;487.000;0.000;0.000;50.69;8192;12.210;0.000;0;97;0;0;0;0;0;0;0;0;0;0;0
1.4.2010;13:37:42.46;33;3.120;10.981;320.202;2.401;-2.981;293.730;7;-339;430;0.042;-0.052;-1.006;-0.491;0.565;-0.439;1.008;-7.664;7.684;4.982;1.176;90.0000000;0.0000000;487.000;0.000;0.000;50.69;8192;12.207;0.000;0;97;0;0;0;0;0;0;0;0;0;0;0
1.4.2010;13:37:42.66;34;2.840;10.371;321.231;2.332;-3.038;294.150;-100;-137;262;0.041;-0.053;-1.005;-0.494;0.556;-0.440;1.007;-6.049;8.127;5.028;1.156;90.0000000;0.0000000;487.000;0.000;0.000;50.69;8192;12.202;0.000;0;97;0;0;0;0;0;0;0;0;0;0;0
1.4.2010;13:37:42.89;34;2.576;9.772;322.293;2.579;-2.992;294.700;-45;-39;357;0.045;-0.052;-1.009;-0.503;0.544;-0.447;1.011;-4.246;9.039;5.089;0.931;90.0000000;0.0000000;487.000;0.000;0.000;50.69;8192;12.212;0.000;0;97;0;0;0;0;0;0;0;0;0;0;0
1.4.2010;13:37:43.08;34;2.276;9.078;323.521;2.625;-3.279;297.150;-27;-139;317;0.046;-0.057;-1.009;-0.509;0.538;-0.449;1.011;-1.898;9.758;5.037;1.223;90.0000000;0.0000000;487.000;0.000;0.000;50.69;8192;12.207;0.000;0;97;0;0;0;0;0;0;0;0;0;0;0
1.4.2010;13:37:43.33;34;2.045;8.622;324.314;2.527;-3.084;296.320;-93;-213;268;0.044;-0.054;-1.010;-0.512;0.528;-0.452;1.012;-0.281;10.461;5.025;-0.159;90.0000000;0.0000000;487.000;0.000;0.000;50.69;8192;12.202;0.000;0;97;0;0;0;0;0;0;0;0;0;0;0
1.4.2010;13:37:43.46;34;1.707;7.803;325.702;2.401;-2.963;297.240;-210;-130;264;0.042;-0.052;-1.007;-0.514;0.512;-0.453;1.009;2.725;11.334;5.035;-0.374;90.0000000;0.0000000;487.000;0.000;0.000;50.69;8192;12.212;0.000;0;97;0;0;0;0;0;0;0;0;0;0;0
1.4.2010;13:37:43.66;35;1.559;7.402;326.329;2.372;-3.038;297.310;-123;-189;363;0.041;-0.053;-1.008;-0.517;0.506;-0.456;1.011;4.273;11.927;5.075;-0.247;90.0000000;0.0000000;487.000;0.000;0.000;50.69;8192;12.209;0.000;0;97;0;0;0;0;0;0;0;0;0;0;0
1.4.2010;13:37:43.88;35;1.349;6.788;327.358;2.372;-2.998;298.640;-78;-18;352;0.041;-0.052;-1.005;-0.521;0.493;-0.456;1.008;6.757;12.511;5.113;1.332;90.0000000;0.0000000;487.000;0.000;0.000;50.69;8192;12.207;0.000;0;97;0;0;0;0;0;0;0;0;0;0;0
1.4.2010;13:37:44.08;35;1.121;6.156;328.289;2.579;-2.935;301.590;-50;-223;255;0.045;-0.051;-1.006;-0.528;0.481;-0.457;1.008;9.309;13.397;5.208;2.639;90.0000000;0.0000000;487.000;0.000;0.000;50.69;8192;12.215;0.000;0;97;0;0;0;0;0;0;0;0;0;0;0
1.4.2010;13:37:44.29;35;0.918;5.545;329.291;2.441;-3.147;300.050;-115;-129;289;0.043;-0.055;-1.009;-0.529;0.475;-0.461;1.011;12.077;14.051;5.213;2.022;90.0000000;0.0000000;487.000;0.000;0.000;50.69;8192;12.214;0.000;0;97;0;0;0;0;0;0;0;0;0;0;0
1.4.2010;13:37:44.49;35;0.713;4.883;330.301;2.636;-2.889;300.660;55;-325;402;0.046;-0.050;-1.008;-0.536;0.458;-0.462;1.010;15.047;14.758;5.249;0.553;90.0000000;0.0000000;487.000;0.000;0.000;50.69;8192;12.210;0.000;0;97;0;0;0;0;0;0;0;0;0;0;0
1.4.2010;13:37:44.68;36;0.552;4.237;331.217;2.544;-2.889;301.990;-147;-194;400;0.044;-0.050;-1.006;-0.538;0.447;-0.461;1.008;18.087;15.648;5.238;1.695;90.0000000;0.0000000;487.000;0.000;0.000;50.69;8192;12.217;0.000;0;97;0;0;0;0;0;0;0;0;0;0;0
1.4.2010;13:37:44.89;36;0.402;3.581;332.162;2.498;-2.981;302.280;-217;-152;305;0.044;-0.052;-1.004;-0.538;0.437;-0.461;1.007;21.338;16.333;5.304;0.970;90.0000000;0.0000000;487.000;0.000;0.000;50.69;8192;12.209;0.000;0;97;0;0;0;0;0;0;0;0;0;0;0
1.4.2010;13:37:45.08;36;0.249;2.889;333.119;2.579;-2.992;304.020;79;-459;391;0.045;-0.052;-1.011;-0.544;0.424;-0.468;1.013;24.728;17.049;5.142;-0.269;90.0000000;0.0000000;487.000;0.000;0.000;50.69;8192;12.210;0.000;0;97;0;0;0;0;0;0;0;0;0;0;0
1.4.2010;13:37:45.30;36;0.098;2.229;334.093;2.734;-3.055;304.400;-5;-120;234;0.048;-0.053;-1.008;-0.548;0.415;-0.466;1.010;28.273;17.778;5.005;-1.749;90.0000000;0.0000000;487.000;0.000;0.000;50.69;8192;12.211;0.000;0;97;0;0;0;0;0;0;0;0;0;0;0
1.4.2010;13:37:45.50;36;-0.009;1.580;335.036;2.590;-3.136;305.130;42;-330;359;0.045;-0.055;-1.009;-0.546;0.404;-0.469;1.012;31.952;18.491;5.068;0.294;90.0000000;0.0000000;487.000;0.000;0.000;50.69;8192;12.228;0.000;0;97;0;0;0;0;0;0;0;0;0;0;0
1.4.2010;13:37:45.71;37;-0.058;0.858;305.870;2.361;-3.090;305.870;-8;-163;300;0.041;-0.054;-1.009;-0.542;0.392;-0.470;1.012;35.856;19.293;5.122;0.730;90.0000000;0.0000000;487.000;0.000;0.000;50.69;8192;12.225;0.000;0;97;0;0;0;0;0;0;0;0;0;0;0
1.4.2010;13:37:45.91;37;-0.097;0.165;306.880;2.642;-3.164;306.880;14;-243;308;0.046;-0.055;-1.010;-0.547;0.380;-0.472;1.012;39.816;20.122;5.145;0.010;90.0000000;0.0000000;487.000;0.000;0.000;50.69;8192;12.223;0.000;0;97;0;0;0;0;0;0;0;0;0;0;0
1.4.2010;13:37:46.16;37;-0.134;-0.533;307.980;2.498;-3.205;307.980;-8;-312;374;0.044;-0.056;-1.010;-0.544;0.371;-0.472;1.013;44.034;20.908;5.213;-0.742;90.0000000;0.0000000;487.000;0.000;0.000;50.69;8192;12.226;0.000;0;97;0;0;0;0;0;0;0;0;0;0;0
1.4.2010;13:37:46.41;37;-0.160;-1.524;307.900;2.453;-2.923;307.900;15;-286;370;0.043;-0.051;-1.009;-0.543;0.348;-0.471;1.011;49.716;21.842;5.143;-0.105;90.0000000;0.0000000;487.000;0.000;0.000;50.69;8192;12.230;0.000;0;97;0;0;0;0;0;0;0;0;0;0;0
1.4.2010;13:37:46.54;37;-0.193;-2.343;309.620;2.344;-3.118;309.620;-82;-193;403;0.041;-0.054;-1.008;-0.542;0.339;-0.470;1.010;54.823;22.733;5.195;0.999;90.0000000;0.0000000;487.000;0.000;0.000;50.69;8192;12.226;0.000;0;97;0;0;0;0;0;0;0;0;0;0;0
