Date; Time; System Timestamp;Angle Pitch; Angle Roll; Angle Yaw; Pitch Reference; Roll Reference; Yaw Reference; Ang.vel. Pitch; Ang.vel. Roll; Ang.vel. Yaw; Total acc. X; Total acc. Y; Total acc. Z; Trans. acc. X; Trans. acc. Y; Trans. acc. Z; Total acc.; Height; dHeight; Height reference; dHeight reference;Latitude; Longitude; Height; Speed x; Speed y; Horizontal accuracy; GPS Status;Battery 1; Battery 2; Status; FlightMode;Pressure; Temp. Gyro; Temp. ADC;Pitch; Roll; Yaw; Thrust;debug1;debug2;debug3;debug4;
19.1.2010;15:42:12.42;0;0.000;0.000;0.000;0.000;0.000;0.000;0;0;0;0.000;0.000;0.000;0.000;0.000;0.000;0.000;0.000;0.000;0.000;0.000;0.0000000;0.0000000;0.000;0.000;0.000;0.00;00;12.315;0.000;0;3;0;0;0;0;0;0;0;0;0;0;0
19.1.2010;15:42:12.62;0;-0.019;-0.943;25.781;-0.023;-0.900;25.810;1;-1;-7;-0.000;-0.016;-1.003;0.000;-0.000;-0.002;1.003;5.575;0.015;5.607;0.005;90.0000000;0.0000000;487.000;0.000;0.000;50.69;8192;12.315;0.000;0;3;0;0;0;0;0;0;0;0;0;0;0
19.1.2010;15:42:12.79;0;-0.004;-1.034;25.755;-0.126;-0.986;25.660;-23;69;4;-0.002;-0.017;-1.000;0.002;-0.001;0.001;1.000;5.735;0.106;5.747;-1.515;90.0000000;0.0000000;487.000;0.000;0.000;50.69;8192;12.315;0.000;0;3;0;0;0;0;0;0;0;0;0;0;0
19.1.2010;15:42:13.01;0;-0.072;-1.123;26.283;0.034;-1.089;26.380;1;31;-34;0.001;-0.019;-1.005;-0.001;-0.001;-0.003;1.006;5.729;0.002;5.794;0.766;90.0000000;0.0000000;487.000;0.000;0.000;50.69;8192;12.314;0.000;0;3;0;0;0;0;0;0;0;0;0;0;0
19.1.2010;15:42:13.21;0;0.172;-1.100;25.990;0.223;-1.135;26.090;-22;-56;9;0.004;-0.020;-1.005;-0.002;0.001;-0.002;1.005;5.851;0.096;5.929;1.881;90.0000000;0.0000000;487.000;0.000;0.000;50.69;8192;12.312;0.000;0;3;0;0;0;0;0;0;0;0;0;0;0
19.1.2010;15:42:13.40;0;-0.074;-1.016;25.973;-0.086;-0.997;25.660;-11;16;11;-0.002;-0.017;-1.002;0.001;-0.000;-0.000;1.002;5.952;0.141;5.888;-2.359;90.0000000;0.0000000;487.000;0.000;0.000;50.69;8192;12.315;0.000;0;3;0;0;0;0;0;0;0;0;0;0;0
19.1.2010;15:42:13.62;0;-0.116;-1.078;25.973;-0.097;-1.032;26.000;63;-20;7;-0.002;-0.018;-1.004;0.000;0.000;-0.001;1.004;5.999;0.143;6.002;1.170;90.0000000;0.0000000;487.000;0.000;0.000;50.69;8192;12.313;0.000;0;3;0;0;0;0;0;0;0;0;0;0;0
19.1.2010;15:42:13.82;0;-0.001;-0.982;26.100;-0.086;-0.900;25.660;24;-23;2;-0.002;-0.016;-1.003;0.001;0.001;-0.002;1.003;6.109;0.226;6.111;-0.033;90.0000000;0.0000000;487.000;0.000;0.000;50.69;8192;12.313;0.000;0;3;0;0;0;0;0;0;0;0;0;0;0
19.1.2010;15:42:14.02;0;0.085;-1.010;25.613;0.017;-1.032;25.660;-2;-58;6;0.000;-0.018;-1.001;0.001;-0.000;0.000;1.001;6.136;0.149;6.170;1.074;90.0000000;0.0000000;487.000;0.000;0.000;50.69;8192;12.314;0.000;0;3;0;0;0;0;0;0;0;0;0;0;0
19.1.2010;15:42:14.23;0;-0.080;-1.169;26.288;-0.086;-1.232;26.380;2;30;7;-0.002;-0.022;-1.003;0.001;0.001;-0.001;1.003;6.051;0.087;6.075;0.859;90.0000000;0.0000000;487.000;0.000;0.000;50.69;8192;12.314;0.000;0;3;0;0;0;0;0;0;0;0;0;0;0
19.1.2010;15:42:14.43;0;-0.193;-1.060;25.844;-0.126;-0.986;25.430;53;43;-32;-0.002;-0.017;-0.999;-0.000;-0.001;0.003;0.999;6.110;0.113;6.124;1.281;90.0000000;0.0000000;487.000;0.000;0.000;50.69;8192;12.313;0.000;0;3;0;0;0;0;0;0;0;0;0;0;0
19.1.2010;15:42:14.63;0;-0.086;-1.165;26.045;-0.080;-1.163;25.950;-3;-14;-28;-0.001;-0.020;-1.001;-0.000;-0.001;0.002;1.001;6.118;0.099;6.225;1.331;90.0000000;0.0000000;487.000;0.000;0.000;50.69;8192;12.315;0.000;0;3;0;0;0;0;0;0;0;0;0;0;0
19.1.2010;15:42:14.82;0;-0.009;-1.113;26.417;0.034;-1.135;26.380;-30;-33;-5;0.001;-0.020;-1.006;-0.001;-0.000;-0.004;1.006;6.172;0.131;6.275;1.410;90.0000000;0.0000000;487.000;0.000;0.000;50.69;8192;12.314;0.000;0;3;0;0;0;0;0;0;0;0;0;0;0
19.1.2010;15:42:15.04;0;-0.014;-1.206;26.469;-0.097;-1.169;27.810;-24;2;24;-0.002;-0.020;-1.002;0.001;-0.001;0.001;1.002;6.329;0.193;6.349;0.538;90.0000000;0.0000000;487.000;0.000;0.000;50.69;8192;12.312;0.000;0;3;0;0;0;0;0;0;0;0;0;0;0
19.1.2010;15:42:15.27;0;0.000;-1.132;26.337;0.132;-1.261;27.040;22;-48;35;0.002;-0.022;-1.003;-0.002;0.002;0.000;1.004;6.218;0.063;6.217;-0.398;90.0000000;0.0000000;487.000;0.000;0.000;50.69;8192;12.315;0.000;0;3;0;0;0;0;0;0;0;0;0;0;0
19.1.2010;15:42:15.46;0;-0.007;-1.006;26.184;0.178;-0.986;26.280;23;-15;7;0.003;-0.017;-1.002;-0.003;-0.000;0.002;1.002;6.216;0.037;6.210;0.634;90.0000000;0.0000000;487.000;0.000;0.000;50.69;8192;12.312;0.000;0;3;0;0;0;0;0;0;0;0;0;0;0
19.1.2010;15:42:15.68;0;-0.058;-1.049;25.996;-0.080;-1.186;26.090;-44;-25;-49;-0.001;-0.021;-1.006;0.001;0.002;-0.002;1.006;6.159;-0.088;6.167;-0.015;90.0000000;0.0000000;487.000;0.000;0.000;50.69;8192;12.311;0.000;0;3;0;0;0;0;0;0;0;0;0;0;0
19.1.2010;15:42:15.87;0;-0.211;-1.090;25.696;-0.212;-1.181;25.330;15;-49;3;-0.004;-0.021;-1.004;-0.001;0.002;-0.000;1.004;6.246;0.076;6.277;0.247;90.0000000;0.0000000;487.000;0.000;0.000;50.69;8192;12.314;0.000;0;3;0;0;0;0;0;0;0;0;0;0;0
19.1.2010;15:42:16.04;0;-0.069;-1.010;25.582;-0.212;-1.020;26.050;-20;33;8;-0.004;-0.018;-1.000;0.002;0.000;0.004;1.000;6.108;-0.030;6.181;1.483;90.0000000;0.0000000;487.000;0.000;0.000;50.69;8192;12.314;0.000;0;3;0;0;0;0;0;0;0;0;0;0;0
19.1.2010;15:42:16.24;0;-0.325;-1.194;25.764;-0.132;-1.289;25.850;-15;22;7;-0.002;-0.022;-1.001;-0.004;0.001;0.002;1.001;6.099;-0.016;6.099;-0.493;90.0000000;0.0000000;487.000;0.000;0.000;50.69;8192;12.315;0.000;0;3;0;0;0;0;0;0;0;0;0;0;0
19.1.2010;15:42:16.48;0;-0.328;-1.153;25.761;-0.350;-1.066;25.470;-31;-7;-28;-0.006;-0.019;-1.001;-0.000;-0.001;0.001;1.001;6.088;-0.079;6.199;2.203;90.0000000;0.0000000;487.000;0.000;0.000;50.69;8192;12.314;0.000;0;3;0;0;0;0;0;0;0;0;0;0;0
19.1.2010;15:42:16.65;0;-0.217;-1.177;26.235;-0.103;-1.060;26.190;24;-36;13;-0.002;-0.018;-1.000;-0.002;-0.001;0.001;1.000;6.107;-0.081;6.186;1.696;90.0000000;0.0000000;487.000;0.000;0.000;50.69;8192;12.315;0.000;0;3;0;0;0;0;0;0;0;0;0;0;0
19.1.2010;15:42:16.87;0;-0.299;-1.124;26.096;-0.332;-1.163;26.190;18;55;-50;-0.006;-0.020;-1.000;0.001;0.001;0.001;1.000;6.142;-0.077;6.182;0.030;90.0000000;0.0000000;487.000;0.000;0.000;50.69;8192;12.314;0.000;0;3;0;0;0;0;0;0;0;0;0;0;0
19.1.2010;15:42:17.07;0;-0.290;-1.111;26.244;-0.315;-1.060;25.950;-9;59;4;-0.006;-0.018;-1.001;0.001;-0.001;0.000;1.001;6.113;-0.087;6.143;0.518;90.0000000;0.0000000;487.000;0.000;0.000;50.69;8192;12.313;0.000;0;3;0;0;0;0;0;0;0;0;0;0;0
19.1.2010;15:42:17.31;0;-0.222;-1.203;26.107;-0.097;-1.232;26.330;57;43;-10;-0.002;-0.022;-0.998;-0.002;0.000;0.003;0.998;6.133;-0.023;6.157;-0.245;90.0000000;0.0000000;487.000;0.000;0.000;50.69;8192;12.314;0.000;0;3;0;0;0;0;0;0;0;0;0;0;0
19.1.2010;15:42:17.48;0;-0.197;-1.139;26.169;-0.114;-1.140;25.710;44;21;-48;-0.002;-0.020;-1.002;0.000;0.000;0.000;1.002;6.164;0.024;6.235;0.864;90.0000000;0.0000000;487.000;0.000;0.000;50.69;8192;12.313;0.000;0;3;0;0;0;0;0;0;0;0;0;0;0
19.1.2010;15:42:17.71;0;-0.213;-1.069;26.000;0.017;-1.049;25.900;-2;3;3;0.000;-0.018;-0.999;-0.004;0.001;0.003;0.999;6.161;0.014;6.138;0.263;90.0000000;0.0000000;487.000;0.000;0.000;50.69;8192;12.313;0.000;0;3;0;0;0;0;0;0;0;0;0;0;0
19.1.2010;15:42:17.95;0;-0.074;-1.171;25.972;0.006;-1.186;25.950;15;47;3;0.000;-0.021;-0.999;-0.001;0.000;0.002;0.999;6.289;0.055;6.275;0.558;90.0000000;0.0000000;487.000;0.000;0.000;50.69;8192;12.315;0.000;0;3;0;0;0;0;0;0;0;0;0;0;0
19.1.2010;15:42:18.18;0;-0.246;-1.063;26.008;-0.212;-1.140;25.900;-44;-33;-17;-0.004;-0.020;-1.004;-0.001;0.002;-0.002;1.005;6.231;0.021;6.264;0.475;90.0000000;0.0000000;487.000;0.000;0.000;50.69;8192;12.315;0.000;0;3;0;0;0;0;0;0;0;0;0;0;0
19.1.2010;15:42:18.37;0;-0.182;-1.009;25.664;-0.114;-1.003;25.570;73;-45;35;-0.002;-0.018;-1.003;0.000;0.000;-0.000;1.003;6.146;-0.009;6.178;-0.108;90.0000000;0.0000000;487.000;0.000;0.000;50.69;8192;12.314;0.000;0;3;0;0;0;0;0;0;0;0;0;0;0
19.1.2010;15:42:18.56;0;-0.107;-1.276;26.512;-0.286;-1.226;25.810;9;-61;-22;-0.005;-0.021;-1.001;0.003;-0.001;0.001;1.001;6.113;-0.084;6.234;2.306;90.0000000;0.0000000;487.000;0.000;0.000;50.69;8192;12.314;0.000;0;3;0;0;0;0;0;0;0;0;0;0;0
19.1.2010;15:42:18.73;0;-0.146;-1.265;26.298;-0.051;-1.307;26.000;36;-19;4;-0.001;-0.023;-1.005;-0.001;0.002;-0.001;1.005;6.229;0.003;6.212;-1.168;90.0000000;0.0000000;487.000;0.000;0.000;50.69;8192;12.311;0.000;0;3;0;0;0;0;0;0;0;0;0;0;0
19.1.2010;15:42:18.88;0;-0.224;-1.149;26.167;-0.269;-1.181;25.570;-26;-21;43;-0.005;-0.021;-0.998;0.000;0.001;0.004;0.998;6.205;-0.049;6.218;-0.194;90.0000000;0.0000000;487.000;0.000;0.000;50.69;8192;12.314;0.000;0;3;0;0;0;0;0;0;0;0;0;0;0
19.1.2010;15:42:19.09;0;-0.194;-1.113;25.813;-0.241;-1.060;25.850;19;24;27;-0.004;-0.018;-1.006;0.002;-0.001;-0.004;1.006;6.163;-0.114;6.176;0.280;90.0000000;0.0000000;487.000;0.000;0.000;50.69;8192;12.316;0.000;0;3;0;0;0;0;0;0;0;0;0;0;0
19.1.2010;15:42:19.29;0;-0.296;-1.116;25.888;-0.258;-1.226;27.040;-47;37;30;-0.004;-0.021;-1.000;-0.000;0.001;0.002;1.001;6.090;-0.183;6.159;1.594;90.0000000;0.0000000;487.000;0.000;0.000;50.69;8192;12.310;0.000;0;3;0;0;0;0;0;0;0;0;0;0;0
19.1.2010;15:42:19.51;0;-0.203;-1.106;25.535;-0.252;-1.198;25.760;-17;-135;-14;-0.004;-0.021;-1.001;0.000;0.000;0.002;1.001;6.187;-0.120;6.254;1.670;90.0000000;0.0000000;487.000;0.000;0.000;50.69;8192;12.313;0.000;0;3;0;0;0;0;0;0;0;0;0;0;0
19.1.2010;15:42:19.81;0;-0.164;-1.263;26.460;-0.206;-1.060;26.240;-36;33;-6;-0.004;-0.018;-0.999;0.001;-0.003;0.002;0.999;6.200;-0.117;6.192;0.586;90.0000000;0.0000000;487.000;0.000;0.000;50.69;8192;12.310;0.000;0;3;0;0;0;0;0;0;0;0;0;0;0
19.1.2010;15:42:20.02;0;-0.342;-1.191;25.747;-0.350;-1.095;25.430;3;-34;-27;-0.006;-0.019;-1.002;-0.001;-0.001;-0.001;1.002;6.164;-0.080;6.213;0.463;90.0000000;0.0000000;487.000;0.000;0.000;50.69;8192;12.313;0.000;0;3;0;0;0;0;0;0;0;0;0;0;0
19.1.2010;15:42:20.20;0;-0.270;-1.217;26.283;-0.350;-1.261;26.330;32;3;8;-0.006;-0.022;-1.008;0.002;0.000;-0.005;1.008;6.195;-0.057;6.253;1.045;90.0000000;0.0000000;487.000;0.000;0.000;50.69;8192;12.313;0.000;0;3;0;0;0;0;0;0;0;0;0;0;0
19.1.2010;15:42:20.34;0;-0.289;-1.265;26.078;-0.367;-1.352;26.620;2;-4;38;-0.006;-0.024;-1.004;0.002;0.002;-0.002;1.005;6.268;-0.025;6.269;-0.145;90.0000000;0.0000000;487.000;0.000;0.000;50.69;8192;12.314;0.000;0;3;0;0;0;0;0;0;0;0;0;0;0
19.1.2010;15:42:20.51;0;-0.342;-1.197;26.305;-0.252;-1.106;26.430;16;-10;-7;-0.004;-0.019;-1.004;-0.002;-0.001;-0.000;1.004;6.148;-0.089;6.130;-0.870;90.0000000;0.0000000;487.000;0.000;0.000;50.69;8192;12.315;0.000;0;3;0;0;0;0;0;0;0;0;0;0;0
19.1.2010;15:42:20.73;0;-0.297;-1.140;25.914;-0.223;-1.163;26.190;-15;23;-29;-0.004;-0.020;-1.003;0.000;0.000;-0.000;1.003;6.109;-0.165;6.217;2.002;90.0000000;0.0000000;487.000;0.000;0.000;50.69;8192;12.315;0.000;0;3;0;0;0;0;0;0;0;0;0;0;0
19.1.2010;15:42:20.92;0;-0.327;-1.131;26.096;-0.160;-1.181;26.190;34;-41;29;-0.003;-0.021;-1.000;-0.003;0.001;0.003;1.000;6.179;-0.156;6.244;0.551;90.0000000;0.0000000;487.000;0.000;0.000;50.69;8192;12.315;0.000;0;3;0;0;0;0;0;0;0;0;0;0;0
19.1.2010;15:42:21.13;0;-0.189;-1.205;25.790;-0.086;-1.123;25.660;44;-35;32;-0.002;-0.020;-0.999;0.000;-0.002;0.003;0.999;6.177;-0.147;6.179;-1.533;90.0000000;0.0000000;487.000;0.000;0.000;50.69;8192;12.314;0.000;0;3;0;0;0;0;0;0;0;0;0;0;0
19.1.2010;15:42:21.34;0;-0.278;-1.197;26.317;-0.223;-1.152;26.850;23;56;-15;-0.004;-0.020;-1.001;-0.001;-0.000;0.000;1.001;6.182;-0.137;6.284;1.292;90.0000000;0.0000000;487.000;0.000;0.000;50.69;8192;12.311;0.000;0;3;0;0;0;0;0;0;0;0;0;0;0
19.1.2010;15:42:21.52;0;-0.249;-1.185;26.241;-0.235;-1.186;26.190;28;-21;39;-0.004;-0.021;-1.003;0.000;0.000;-0.002;1.003;6.169;-0.142;6.171;-0.123;90.0000000;0.0000000;487.000;0.000;0.000;50.69;8192;12.312;0.000;0;3;0;0;0;0;0;0;0;0;0;0;0
19.1.2010;15:42:21.76;0;-0.004;-1.152;26.403;-0.006;-1.077;26.190;31;17;37;-0.000;-0.019;-1.004;-0.001;-0.001;-0.001;1.004;6.230;-0.106;6.324;1.867;90.0000000;0.0000000;487.000;0.000;0.000;50.69;8192;12.312;0.000;0;3;0;0;0;0;0;0;0;0;0;0;0
19.1.2010;15:42:21.93;0;-0.230;-1.090;25.994;-0.281;-1.140;25.900;37;29;8;-0.005;-0.020;-1.006;0.000;0.002;-0.004;1.006;6.212;-0.115;6.213;1.186;90.0000000;0.0000000;487.000;0.000;0.000;50.69;8192;12.314;0.000;0;3;0;0;0;0;0;0;0;0;0;0;0
19.1.2010;15:42:22.15;0;-0.241;-1.257;26.525;-0.281;-1.020;26.620;36;4;-25;-0.005;-0.018;-1.002;0.000;-0.004;0.002;1.002;6.238;-0.085;6.239;0.460;90.0000000;0.0000000;487.000;0.000;0.000;50.69;8192;12.315;0.000;0;3;0;0;0;0;0;0;0;0;0;0;0
19.1.2010;15:42:22.35;0;-0.148;-1.153;26.184;-0.143;-0.866;26.280;34;4;18;-0.002;-0.015;-1.003;0.000;-0.004;0.000;1.003;6.192;-0.098;6.225;0.482;90.0000000;0.0000000;487.000;0.000;0.000;50.69;8192;12.315;0.000;0;3;0;0;0;0;0;0;0;0;0;0;0
19.1.2010;15:42:22.56;0;-0.119;-1.139;26.316;-0.350;-1.152;26.280;4;94;75;-0.006;-0.020;-1.001;0.004;0.000;0.001;1.002;6.255;-0.049;6.294;1.653;90.0000000;0.0000000;487.000;0.000;0.000;50.69;8192;12.314;0.000;0;3;0;0;0;0;0;0;0;0;0;0;0
19.1.2010;15:42:22.76;0;-0.226;-1.164;26.281;-0.332;-1.140;26.380;-36;22;-8;-0.006;-0.020;-1.002;0.001;-0.000;0.000;1.002;6.199;-0.050;6.212;0.019;90.0000000;0.0000000;487.000;0.000;0.000;50.69;8192;12.315;0.000;0;3;0;0;0;0;0;0;0;0;0;0;0
19.1.2010;15:42:22.96;0;-0.190;-1.109;26.148;-0.195;-0.974;26.280;11;-22;47;-0.003;-0.017;-0.997;0.001;-0.002;0.003;0.997;6.176;-0.032;6.177;0.120;90.0000000;0.0000000;487.000;0.000;0.000;50.69;8192;12.311;0.000;0;3;0;0;0;0;0;0;0;0;0;0;0
19.1.2010;15:42:23.31;0;-0.227;-1.011;25.837;-0.103;-0.940;26.090;7;-7;20;-0.002;-0.016;-1.000;-0.002;-0.001;0.000;1.000;6.138;-0.050;6.153;-0.409;90.0000000;0.0000000;487.000;0.000;0.000;50.69;8192;12.315;0.000;0;3;0;0;0;0;0;0;0;0;0;0;0
19.1.2010;15:42:23.38;0;-0.225;-1.065;25.780;-0.223;-0.854;25.760;60;-12;-72;-0.004;-0.015;-1.003;-0.001;-0.003;-0.002;1.003;6.216;-0.023;6.263;0.651;90.0000000;0.0000000;487.000;0.000;0.000;50.69;8192;12.313;0.000;0;3;0;0;0;0;0;0;0;0;0;0;0
19.1.2010;15:42:23.59;0;-0.206;-1.059;25.785;-0.086;-1.043;25.660;-41;-50;13;-0.002;-0.018;-1.004;-0.003;-0.000;-0.002;1.004;6.363;0.085;6.308;-0.730;90.0000000;0.0000000;487.000;0.000;0.000;50.69;8192;12.314;0.000;0;3;0;0;0;0;0;0;0;0;0;0;0
19.1.2010;15:42:23.81;0;-0.216;-1.030;25.629;-0.235;-1.112;25.470;9;31;24;-0.004;-0.019;-1.004;-0.001;0.002;-0.002;1.004;6.203;-0.007;6.219;0.453;90.0000000;0.0000000;487.000;0.000;0.000;50.69;8192;12.315;0.000;0;3;0;0;0;0;0;0;0;0;0;0;0
19.1.2010;15:42:23.98;0;-0.185;-0.993;25.648;-0.281;-1.329;25.710;6;23;-4;-0.005;-0.023;-1.000;0.003;0.008;0.002;1.000;6.209;0.003;6.228;0.531;90.0000000;0.0000000;487.000;0.000;0.000;50.69;8192;12.315;0.000;0;3;0;0;0;0;0;0;0;0;0;0;0
19.1.2010;15:42:24.18;0;-0.259;-1.075;25.481;-0.132;-1.255;25.900;13;-23;21;-0.002;-0.022;-1.001;-0.003;0.003;0.000;1.001;6.189;0.030;6.156;-0.855;90.0000000;0.0000000;487.000;0.000;0.000;50.69;8192;12.311;0.000;0;3;0;0;0;0;0;0;0;0;0;0;0
19.1.2010;15:42:24.42;0;-0.266;-1.048;25.809;-0.195;-1.215;25.900;58;20;-20;-0.003;-0.021;-1.003;-0.001;0.004;-0.002;1.003;6.209;0.038;6.208;-0.025;90.0000000;0.0000000;487.000;0.000;0.000;50.69;8192;12.310;0.000;0;3;0;0;0;0;0;0;0;0;0;0;0
19.1.2010;15:42:24.59;0;-0.220;-1.156;25.807;-0.212;-1.014;25.240;-5;-25;3;-0.004;-0.018;-1.007;-0.000;-0.002;-0.004;1.007;6.156;-0.013;6.153;-0.026;90.0000000;0.0000000;487.000;0.000;0.000;50.69;8192;12.310;0.000;0;3;0;0;0;0;0;0;0;0;0;0;0
19.1.2010;15:42:24.84;0;-0.291;-1.041;25.614;-0.298;-1.089;25.520;12;-35;-19;-0.005;-0.019;-1.003;0.001;0.002;-0.001;1.003;6.196;0.018;6.253;0.643;90.0000000;0.0000000;487.000;0.000;0.000;50.69;8192;12.313;0.000;0;3;0;0;0;0;0;0;0;0;0;0;0
19.1.2010;15:42:24.99;0;-0.186;-1.008;25.906;-0.235;-0.946;26.000;-35;11;-12;-0.004;-0.016;-1.003;0.002;-0.001;-0.001;1.003;6.346;0.181;6.344;0.466;90.0000000;0.0000000;487.000;0.000;0.000;50.69;8192;12.314;0.000;0;3;0;0;0;0;0;0;0;0;0;0;0
19.1.2010;15:42:25.18;0;0.005;-1.168;26.188;-0.034;-1.123;25.950;14;15;-36;-0.001;-0.020;-1.003;0.000;-0.001;-0.001;1.004;6.258;0.074;6.367;1.324;90.0000000;0.0000000;487.000;0.000;0.000;50.69;8192;12.313;0.000;0;3;0;0;0;0;0;0;0;0;0;0;0
19.1.2010;15:42:25.38;0;-0.149;-1.123;25.942;-0.114;-1.077;25.850;4;-19;33;-0.002;-0.019;-1.001;-0.001;-0.001;-0.000;1.001;6.259;0.096;6.261;0.587;90.0000000;0.0000000;487.000;0.000;0.000;50.69;8192;12.314;0.000;0;3;0;0;0;0;0;0;0;0;0;0;0
19.1.2010;15:42:25.65;0;-0.095;-1.090;26.277;-0.252;-1.043;26.470;-25;-2;-12;-0.004;-0.018;-1.004;0.003;0.001;-0.001;1.004;6.314;0.090;6.374;1.855;90.0000000;0.0000000;487.000;0.000;0.000;50.69;8192;12.314;0.000;0;3;0;0;0;0;0;0;0;0;0;0;0
19.1.2010;15:42:25.84;0;-0.190;-1.000;25.428;-0.235;-1.215;25.330;-46;3;4;-0.004;-0.021;-1.004;0.002;0.005;-0.001;1.004;6.360;0.134;6.367;1.176;90.0000000;0.0000000;487.000;0.000;0.000;50.69;8192;12.315;0.000;0;3;0;0;0;0;0;0;0;0;0;0;0
19.1.2010;15:42:25.99;0;-0.183;-1.126;26.365;-0.103;-1.123;26.470;15;91;-1;-0.002;-0.020;-1.003;-0.001;-0.000;-0.000;1.003;6.384;0.095;6.383;0.806;90.0000000;0.0000000;487.000;0.000;0.000;50.69;8192;12.315;0.000;0;3;0;0;0;0;0;0;0;0;0;0;0
19.1.2010;15:42:26.20;0;-0.246;-0.967;25.880;-0.344;-0.957;26.050;16;-50;-33;-0.006;-0.017;-0.999;0.001;0.001;0.003;0.999;6.273;0.033;6.271;-0.394;90.0000000;0.0000000;487.000;0.000;0.000;50.69;8192;12.310;0.000;0;3;0;0;0;0;0;0;0;0;0;0;0
19.1.2010;15:42:26.42;0;-0.154;-1.104;25.967;-0.189;-1.123;26.140;-23;-13;26;-0.003;-0.020;-1.000;0.002;-0.001;-0.001;1.000;6.242;-0.046;6.237;-0.230;90.0000000;0.0000000;487.000;0.000;0.000;50.69;8192;12.315;0.000;0;3;0;0;0;0;0;0;0;0;0;0;0
19.1.2010;15:42:26.60;0;-0.127;-1.010;25.854;-0.126;-1.032;26.000;22;-24;4;-0.002;-0.018;-1.003;0.000;-0.000;-0.003;1.003;6.179;-0.101;6.246;1.565;90.0000000;0.0000000;487.000;0.000;0.000;50.69;8192;12.314;0.000;0;3;0;0;0;0;0;0;0;0;0;0;0
19.1.2010;15:42:26.81;0;-0.294;-1.028;25.712;-0.304;-1.152;26.760;10;-15;-35;-0.005;-0.020;-1.000;0.001;0.002;0.000;1.000;6.291;-0.022;6.309;0.160;90.0000000;0.0000000;487.000;0.000;0.000;50.69;8192;12.312;0.000;0;3;0;0;0;0;0;0;0;0;0;0;0
19.1.2010;15:42:27.02;0;-0.259;-1.070;25.529;-0.281;-0.969;25.520;29;47;7;-0.005;-0.017;-0.999;0.001;-0.002;0.001;0.999;6.268;-0.084;6.341;1.882;90.0000000;0.0000000;487.000;0.000;0.000;50.69;8192;12.310;0.000;0;3;0;0;0;0;0;0;0;0;0;0;0
19.1.2010;15:42:27.27;0;-0.333;-1.236;26.049;-0.178;-1.307;26.140;66;-22;-14;-0.003;-0.023;-1.003;-0.003;-0.000;-0.002;1.004;6.210;-0.128;6.207;-0.159;90.0000000;0.0000000;487.000;0.000;0.000;50.69;8192;12.314;0.000;0;3;0;0;0;0;0;0;0;0;0;0;0
19.1.2010;15:42:27.42;0;-0.117;-0.976;25.432;0.023;-1.112;25.710;-10;-49;36;0.000;-0.019;-1.002;-0.002;0.004;-0.000;1.002;6.228;-0.083;6.230;-0.811;90.0000000;0.0000000;487.000;0.000;0.000;50.69;8192;12.315;0.000;0;3;0;0;0;0;0;0;0;0;0;0;0
19.1.2010;15:42:27.62;0;-0.207;-1.120;26.092;-0.103;-1.077;26.190;-44;-26;38;-0.002;-0.019;-0.999;-0.002;-0.002;0.002;0.999;6.150;-0.085;6.134;-1.300;90.0000000;0.0000000;487.000;0.000;0.000;50.69;8192;12.310;0.000;0;3;0;0;0;0;0;0;0;0;0;0;0
19.1.2010;15:42:27.84;0;-0.291;-0.987;25.754;-0.315;-0.900;25.660;24;-33;-51;-0.006;-0.016;-1.000;0.000;0.000;0.000;1.000;6.227;-0.050;6.261;-1.499;90.0000000;0.0000000;487.000;0.000;0.000;50.69;8192;12.315;0.000;0;3;0;0;0;0;0;0;0;0;0;0;0
19.1.2010;15:42:28.02;0;-0.267;-0.937;25.716;-0.241;-0.911;25.810;5;6;-58;-0.004;-0.016;-1.001;0.000;0.000;0.000;1.001;6.164;-0.132;6.310;2.456;90.0000000;0.0000000;487.000;0.000;0.000;50.69;8192;12.312;0.000;0;3;0;0;0;0;0;0;0;0;0;0;0
19.1.2010;15:42:28.37;0;-0.298;-1.044;25.436;-0.132;-1.043;25.330;-31;-19;-11;-0.002;-0.018;-1.002;-0.004;0.000;0.000;1.002;6.262;-0.092;6.334;1.850;90.0000000;0.0000000;487.000;0.000;0.000;50.69;8192;12.315;0.000;0;3;0;0;0;0;0;0;0;0;0;0;0
19.1.2010;15:42:28.54;0;-0.303;-1.123;25.535;-0.344;-1.215;26.430;1;-49;-37;-0.006;-0.021;-1.001;-0.000;0.001;-0.001;1.002;6.330;-0.054;6.355;-0.001;90.0000000;0.0000000;487.000;0.000;0.000;50.69;8192;12.314;0.000;0;3;0;0;0;0;0;0;0;0;0;0;0
19.1.2010;15:42:28.76;0;-0.389;-1.117;26.131;-0.344;-1.186;25.900;9;17;34;-0.006;-0.021;-0.998;-0.000;0.001;0.004;0.998;6.261;-0.147;6.338;1.424;90.0000000;0.0000000;487.000;0.000;0.000;50.69;8192;12.311;0.000;0;3;0;0;0;0;0;0;0;0;0;0;0
19.1.2010;15:42:28.93;0;-0.283;-1.198;25.675;-0.453;-1.278;25.620;9;-58;4;-0.008;-0.022;-1.003;0.004;0.001;-0.002;1.003;6.319;-0.127;6.340;-0.083;90.0000000;0.0000000;487.000;0.000;0.000;50.69;8192;12.315;0.000;0;3;0;0;0;0;0;0;0;0;0;0;0
19.1.2010;15:42:29.07;0;-0.310;-1.113;26.160;-0.367;-1.032;26.000;-43;-85;36;-0.006;-0.018;-0.999;0.000;-0.002;0.002;0.999;6.342;-0.096;6.365;0.644;90.0000000;0.0000000;487.000;0.000;0.000;50.69;8192;12.314;0.000;0;3;0;0;0;0;0;0;0;0;0;0;0
19.1.2010;15:42:29.93;0;-0.254;-1.120;25.851;-0.212;-1.181;25.760;-7;5;1;-0.004;-0.021;-1.001;-0.000;0.001;0.000;1.001;6.378;0.013;6.343;-0.208;90.0000000;0.0000000;487.000;0.000;0.000;50.69;8192;12.311;0.000;0;3;0;0;0;0;0;0;0;0;0;0;0
19.1.2010;15:42:30.01;0;-0.197;-1.055;25.436;-0.086;-1.278;25.570;-18;-45;24;-0.002;-0.022;-0.995;-0.001;0.004;0.005;0.995;6.214;-0.131;6.234;-0.440;90.0000000;0.0000000;487.000;0.000;0.000;50.69;8192;12.310;0.000;0;3;0;0;0;0;0;0;0;0;0;0;0
19.1.2010;15:42:30.17;0;-0.109;-1.091;25.337;-0.051;-1.106;25.280;-72;64;80;-0.001;-0.019;-1.001;-0.000;0.000;-0.001;1.001;6.161;-0.173;6.115;-1.388;90.0000000;0.0000000;487.000;0.000;0.000;50.69;8192;12.312;0.000;0;3;0;0;0;0;0;0;0;0;0;0;0
19.1.2010;15:42:30.37;0;-0.250;-1.222;26.421;-0.172;-1.209;26.330;-12;-8;7;-0.003;-0.021;-1.005;-0.002;-0.001;-0.003;1.005;6.248;-0.142;6.286;-0.278;90.0000000;0.0000000;487.000;0.000;0.000;50.69;8192;12.314;0.000;0;3;0;0;0;0;0;0;0;0;0;0;0
19.1.2010;15:42:30.62;0;-0.349;-1.016;25.805;-0.332;-1.043;25.710;27;-1;0;-0.006;-0.018;-1.002;-0.001;0.000;0.000;1.003;6.357;-0.193;6.392;-0.429;90.0000000;0.0000000;487.000;0.000;0.000;50.69;8192;12.315;0.000;0;3;0;0;0;0;0;0;0;0;0;0;0
19.1.2010;15:42:30.77;0;-0.374;-0.977;25.471;-0.269;-1.255;25.280;-17;11;32;-0.005;-0.022;-1.004;-0.002;0.006;-0.001;1.004;6.230;-0.228;6.223;-0.104;90.0000000;0.0000000;487.000;0.000;0.000;50.69;8192;12.315;0.000;0;3;0;0;0;0;0;0;0;0;0;0;0
19.1.2010;15:42:30.99;0;-0.373;-1.006;25.392;-0.539;-1.215;25.570;36;-15;-32;-0.009;-0.021;-1.000;0.003;0.003;0.002;1.000;6.244;-0.201;6.277;1.091;90.0000000;0.0000000;487.000;0.000;0.000;50.69;8192;12.313;0.000;0;3;0;0;0;0;0;0;0;0;0;0;0
19.1.2010;15:42:31.17;0;-0.326;-1.111;25.859;-0.304;-1.215;26.190;-1;-31;23;-0.005;-0.021;-1.002;-0.001;0.000;-0.002;1.002;6.305;-0.134;6.277;-1.617;90.0000000;0.0000000;487.000;0.000;0.000;50.69;8192;12.315;0.000;0;3;0;0;0;0;0;0;0;0;0;0;0
19.1.2010;15:42:31.37;0;-0.313;-1.049;26.054;-0.407;-1.043;26.330;19;-28;-12;-0.007;-0.018;-1.000;0.001;0.000;0.000;1.000;6.288;-0.103;6.284;-0.455;90.0000000;0.0000000;487.000;0.000;0.000;50.69;8192;12.310;0.000;0;3;0;0;0;0;0;0;0;0;0;0;0
19.1.2010;15:42:31.59;0;-0.271;-1.100;26.329;-0.269;-1.077;26.470;-48;6;15;-0.005;-0.019;-1.002;0.000;-0.001;-0.001;1.002;6.276;-0.162;6.293;-0.215;90.0000000;0.0000000;487.000;0.000;0.000;50.69;8192;12.314;0.000;0;3;0;0;0;0;0;0;0;0;0;0;0
19.1.2010;15:42:31.79;0;-0.261;-1.068;25.881;-0.304;-1.135;26.090;10;24;-7;-0.005;-0.020;-0.998;0.001;0.002;0.003;0.998;6.295;-0.120;6.442;2.417;90.0000000;0.0000000;487.000;0.000;0.000;50.69;8192;12.311;0.000;0;3;0;0;0;0;0;0;0;0;0;0;0
19.1.2010;15:42:32.01;0;-0.333;-1.104;25.854;-0.252;-0.974;25.760;-7;-24;-11;-0.004;-0.017;-1.004;-0.002;-0.003;-0.004;1.004;6.336;-0.124;6.350;-0.485;90.0000000;0.0000000;487.000;0.000;0.000;50.69;8192;12.313;0.000;0;3;0;0;0;0;0;0;0;0;0;0;0
19.1.2010;15:42:32.20;0;-0.259;-1.150;25.864;-0.252;-1.066;26.240;24;32;-11;-0.004;-0.019;-0.997;0.001;-0.002;0.003;0.998;6.417;-0.110;6.418;-0.568;90.0000000;0.0000000;487.000;0.000;0.000;50.69;8192;12.314;0.000;0;3;0;0;0;0;0;0;0;0;0;0;0
19.1.2010;15:42:32.40;0;-0.339;-1.164;25.749;-0.332;-1.438;26.000;27;-23;13;-0.006;-0.025;-1.002;-0.001;0.005;-0.001;1.002;6.269;-0.194;6.272;0.577;90.0000000;0.0000000;487.000;0.000;0.000;50.69;8192;12.314;0.000;0;3;0;0;0;0;0;0;0;0;0;0;0
19.1.2010;15:42:32.60;0;-0.441;-1.185;25.700;-0.579;-1.392;26.240;-12;30;-47;-0.010;-0.024;-1.000;0.002;0.003;0.001;1.000;6.217;-0.223;6.243;1.129;90.0000000;0.0000000;487.000;0.000;0.000;50.69;8192;12.313;0.000;0;3;0;0;0;0;0;0;0;0;0;0;0
19.1.2010;15:42:32.81;0;-0.545;-1.213;25.901;-0.407;-1.140;25.950;-2;35;-24;-0.007;-0.020;-1.001;-0.003;-0.002;-0.001;1.001;6.325;-0.163;6.317;-2.224;90.0000000;0.0000000;487.000;0.000;0.000;50.69;8192;12.312;0.000;0;3;0;0;0;0;0;0;0;0;0;0;0
19.1.2010;15:42:33.01;0;-0.363;-1.221;26.153;-0.321;-1.112;26.330;-15;49;-25;-0.006;-0.019;-1.000;0.000;-0.002;0.001;1.000;6.345;-0.144;6.407;0.811;90.0000000;0.0000000;487.000;0.000;0.000;50.69;8192;12.312;0.000;0;3;0;0;0;0;0;0;0;0;0;0;0
19.1.2010;15:42:33.20;0;-0.606;-1.149;25.802;-0.602;-0.997;25.190;19;-17;-32;-0.010;-0.017;-0.997;-0.002;-0.003;0.003;0.997;6.319;-0.145;6.332;1.059;90.0000000;0.0000000;487.000;0.000;0.000;50.69;8192;12.310;0.000;0;3;0;0;0;0;0;0;0;0;0;0;0
19.1.2010;15:42:33.40;0;-0.564;-1.139;25.702;-0.539;-1.381;25.660;-8;-24;-15;-0.009;-0.024;-1.001;-0.000;0.003;-0.001;1.002;6.375;-0.064;6.375;-1.157;90.0000000;0.0000000;487.000;0.000;0.000;50.69;8192;12.311;0.000;0;3;0;0;0;0;0;0;0;0;0;0;0
19.1.2010;15:42:33.65;0;-0.510;-1.211;25.852;-0.522;-1.089;25.760;7;29;15;-0.009;-0.019;-1.003;0.000;-0.003;-0.002;1.003;6.335;-0.134;6.409;1.693;90.0000000;0.0000000;487.000;0.000;0.000;50.69;8192;12.311;0.000;0;3;0;0;0;0;0;0;0;0;0;0;0
19.1.2010;15:42:33.84;0;-0.434;-1.273;26.064;-0.493;-1.272;26.330;39;23;-11;-0.009;-0.022;-1.001;0.002;0.000;0.000;1.001;6.398;-0.095;6.398;0.292;90.0000000;0.0000000;487.000;0.000;0.000;50.69;8192;12.315;0.000;0;3;0;0;0;0;0;0;0;0;0;0;0
19.1.2010;15:42:34.02;0;-0.642;-1.230;25.755;-0.694;-1.301;25.470;15;63;-70;-0.012;-0.023;-1.002;0.000;0.001;-0.002;1.002;6.406;-0.055;6.392;-0.857;90.0000000;0.0000000;487.000;0.000;0.000;50.69;8192;12.312;0.000;0;3;0;0;0;0;0;0;0;0;0;0;0
19.1.2010;15:42:34.23;0;-0.597;-1.173;25.614;-0.602;-1.186;25.430;12;-63;-6;-0.010;-0.021;-0.998;0.001;0.001;0.003;0.998;6.362;-0.128;6.396;1.067;90.0000000;0.0000000;487.000;0.000;0.000;50.69;8192;12.313;0.000;0;3;0;0;0;0;0;0;0;0;0;0;0
19.1.2010;15:42:34.42;0;-0.556;-1.169;25.525;-0.430;-1.043;25.430;-10;-15;-21;-0.008;-0.018;-0.999;-0.002;-0.002;0.000;0.999;6.345;-0.136;6.389;1.131;90.0000000;0.0000000;487.000;0.000;0.000;50.69;8192;12.314;0.000;0;3;0;0;0;0;0;0;0;0;0;0;0
19.1.2010;15:42:34.63;0;-0.456;-1.165;25.664;-0.160;-1.152;25.760;-15;10;-1;-0.003;-0.020;-0.999;-0.004;-0.000;0.000;0.999;6.315;-0.122;6.338;0.056;90.0000000;0.0000000;487.000;0.000;0.000;50.69;8192;12.311;0.000;0;3;0;0;0;0;0;0;0;0;0;0;0
19.1.2010;15:42:34.84;0;-0.424;-1.160;25.785;-0.407;-1.095;25.760;16;2;10;-0.007;-0.019;-1.002;-0.000;-0.001;-0.001;1.002;6.292;-0.145;6.384;2.059;90.0000000;0.0000000;487.000;0.000;0.000;50.69;8192;12.312;0.000;0;3;0;0;0;0;0;0;0;0;0;0;0
19.1.2010;15:42:35.02;0;-0.390;-1.250;26.161;-0.395;-1.375;26.330;-40;10;29;-0.007;-0.024;-0.999;0.000;0.002;0.000;1.000;6.279;-0.158;6.378;1.714;90.0000000;0.0000000;487.000;0.000;0.000;50.69;8192;12.313;0.000;0;3;0;0;0;0;0;0;0;0;0;0;0
19.1.2010;15:42:35.23;0;-0.369;-1.318;25.895;-0.189;-1.232;25.850;33;22;-43;-0.003;-0.022;-1.000;-0.002;-0.002;0.000;1.000;6.342;-0.106;6.335;0.229;90.0000000;0.0000000;487.000;0.000;0.000;50.69;8192;12.310;0.000;0;3;0;0;0;0;0;0;0;0;0;0;0
19.1.2010;15:42:35.43;0;-0.424;-1.204;25.854;-0.504;-1.232;25.900;-19;5;39;-0.009;-0.022;-1.000;0.001;0.000;0.001;1.000;6.329;-0.065;6.364;-0.413;90.0000000;0.0000000;487.000;0.000;0.000;50.69;8192;12.314;0.000;0;3;0;0;0;0;0;0;0;0;0;0;0
19.1.2010;15:42:35.63;0;-0.344;-1.104;25.624;-0.424;-0.929;25.470;24;49;6;-0.007;-0.016;-1.006;0.002;-0.003;-0.003;1.006;6.261;-0.129;6.242;0.316;90.0000000;0.0000000;487.000;0.000;0.000;50.69;8192;12.312;0.000;0;3;0;0;0;0;0;0;0;0;0;0;0
19.1.2010;15:42:35.84;0;-0.381;-1.268;26.160;-0.453;-1.169;26.000;-44;-71;9;-0.008;-0.020;-1.000;0.002;-0.002;0.002;1.000;6.304;-0.060;6.302;0.628;90.0000000;0.0000000;487.000;0.000;0.000;50.69;8192;12.314;0.000;0;3;0;0;0;0;0;0;0;0;0;0;0
19.1.2010;15:42:36.04;0;-0.306;-1.207;25.903;-0.286;-1.209;25.760;-22;11;-6;-0.005;-0.021;-1.003;-0.001;-0.001;-0.001;1.003;6.348;0.013;6.368;0.284;90.0000000;0.0000000;487.000;0.000;0.000;50.69;8192;12.311;0.000;0;3;0;0;0;0;0;0;0;0;0;0;0
19.1.2010;15:42:36.26;0;-0.404;-1.297;26.218;-0.350;-1.318;25.900;4;14;50;-0.006;-0.023;-0.999;-0.001;0.001;0.003;0.999;6.243;-0.052;6.251;0.998;90.0000000;0.0000000;487.000;0.000;0.000;50.69;8192;12.315;0.000;0;3;0;0;0;0;0;0;0;0;0;0;0
19.1.2010;15:42:36.46;0;-0.263;-1.243;25.889;-0.281;-1.244;25.900;-12;-71;-20;-0.005;-0.022;-1.002;0.001;0.000;-0.001;1.002;6.261;-0.037;6.346;1.699;90.0000000;0.0000000;487.000;0.000;0.000;50.69;8192;12.315;0.000;0;3;0;0;0;0;0;0;0;0;0;0;0
19.1.2010;15:42:36.67;0;-0.541;-1.272;26.515;-0.676;-1.181;26.810;-25;2;-62;-0.012;-0.021;-0.997;0.001;-0.001;0.004;0.997;6.332;0.001;6.338;1.160;90.0000000;0.0000000;487.000;0.000;0.000;50.69;8192;12.313;0.000;0;3;0;0;0;0;0;0;0;0;0;0;0
19.1.2010;15:42:36.87;0;-0.384;-1.222;25.741;-0.384;-1.272;25.710;-44;-32;91;-0.007;-0.022;-1.002;0.000;0.001;-0.003;1.002;6.276;-0.065;6.276;-0.440;90.0000000;0.0000000;487.000;0.000;0.000;50.69;8192;12.313;0.000;0;3;0;0;0;0;0;0;0;0;0;0;0
19.1.2010;15:42:37.06;0;-0.403;-1.237;26.219;-0.504;-1.289;26.950;33;26;4;-0.009;-0.022;-0.998;0.002;0.001;0.001;0.998;6.274;-0.066;6.333;0.883;90.0000000;0.0000000;487.000;0.000;0.000;50.69;8192;12.315;0.000;0;3;0;0;0;0;0;0;0;0;0;0;0
19.1.2010;15:42:37.26;0;-0.339;-1.232;25.670;-0.361;-1.261;25.570;-52;-59;57;-0.006;-0.022;-1.001;0.000;0.000;-0.002;1.001;6.302;-0.016;6.432;2.298;90.0000000;0.0000000;487.000;0.000;0.000;50.69;8192;12.313;0.000;0;3;0;0;0;0;0;0;0;0;0;0;0
19.1.2010;15:42:37.51;0;-0.342;-1.271;26.388;-0.384;-1.049;26.140;44;-16;-27;-0.007;-0.018;-1.005;0.001;-0.004;-0.004;1.005;6.317;-0.029;6.325;0.903;90.0000000;0.0000000;487.000;0.000;0.000;50.69;8192;12.314;0.000;0;3;0;0;0;0;0;0;0;0;0;0;0
19.1.2010;15:42:37.71;0;-0.335;-1.209;25.834;-0.344;-1.163;26.330;-4;40;-28;-0.006;-0.020;-0.999;0.000;-0.001;0.001;1.000;6.347;-0.006;6.343;0.217;90.0000000;0.0000000;487.000;0.000;0.000;50.69;8192;12.314;0.000;0;3;0;0;0;0;0;0;0;0;0;0;0
19.1.2010;15:42:37.90;0;-0.441;-1.303;26.223;-0.407;-1.335;26.190;24;-9;-7;-0.007;-0.023;-1.002;-0.001;-0.001;-0.001;1.002;6.316;-0.046;6.324;0.689;90.0000000;0.0000000;487.000;0.000;0.000;50.69;8192;12.311;0.000;0;3;0;0;0;0;0;0;0;0;0;0;0
19.1.2010;15:42:38.09;0;-0.442;-1.148;25.904;-0.441;-1.135;26.050;30;13;-12;-0.008;-0.020;-1.001;0.000;0.000;0.002;1.001;6.336;0.025;6.372;0.314;90.0000000;0.0000000;487.000;0.000;0.000;50.69;8192;12.310;0.000;0;3;0;0;0;0;0;0;0;0;0;0;0
19.1.2010;15:42:38.27;0;-0.600;-1.254;25.848;-0.579;-1.329;25.470;10;-22;-34;-0.010;-0.023;-1.002;-0.002;0.001;0.001;1.002;6.330;0.053;6.285;-0.881;90.0000000;0.0000000;487.000;0.000;0.000;50.69;8192;12.312;0.000;0;3;0;0;0;0;0;0;0;0;0;0;0
19.1.2010;15:42:38.49;0;-0.479;-1.263;26.000;-0.487;-1.163;25.900;-32;-12;3;-0.008;-0.020;-1.004;0.001;-0.001;-0.003;1.005;6.326;0.052;6.338;0.436;90.0000000;0.0000000;487.000;0.000;0.000;50.69;8192;12.311;0.000;0;3;0;0;0;0;0;0;0;0;0;0;0
19.1.2010;15:42:38.79;0;-0.436;-1.297;25.849;-0.321;-1.255;25.900;11;-127;6;-0.006;-0.022;-1.000;-0.002;-0.000;0.000;1.000;6.348;0.097;6.363;0.328;90.0000000;0.0000000;487.000;0.000;0.000;50.69;8192;12.311;0.000;0;3;0;0;0;0;0;0;0;0;0;0;0
19.1.2010;15:42:38.93;0;-0.460;-1.329;25.926;-0.550;-1.427;26.190;33;-33;21;-0.010;-0.025;-1.000;0.003;0.001;0.000;1.001;6.369;0.052;6.383;0.058;90.0000000;0.0000000;487.000;0.000;0.000;50.69;8192;12.313;0.000;0;3;0;0;0;0;0;0;0;0;0;0;0
19.1.2010;15:42:39.10;0;-0.418;-1.230;25.808;-0.378;-1.112;25.710;-46;-11;-48;-0.007;-0.019;-1.002;0.000;-0.001;-0.001;1.002;6.390;0.101;6.354;-0.938;90.0000000;0.0000000;487.000;0.000;0.000;50.69;8192;12.315;0.000;0;3;0;0;0;0;0;0;0;0;0;0;0
19.1.2010;15:42:39.32;0;-0.483;-1.247;25.801;-0.493;-1.375;25.900;64;-2;20;-0.009;-0.024;-1.004;0.001;0.002;-0.002;1.004;6.399;0.093;6.420;0.054;90.0000000;0.0000000;487.000;0.000;0.000;50.69;8192;12.314;0.000;0;3;0;0;0;0;0;0;0;0;0;0;0
19.1.2010;15:42:39.56;0;-0.548;-1.241;25.725;-0.550;-1.209;25.430;13;19;21;-0.010;-0.021;-0.999;0.000;-0.001;0.002;1.000;6.356;0.107;6.423;2.328;90.0000000;0.0000000;487.000;0.000;0.000;50.69;8192;12.310;0.000;0;3;0;0;0;0;0;0;0;0;0;0;0
19.1.2010;15:42:39.73;0;-0.459;-1.145;25.847;-0.458;-0.957;26.090;-39;21;4;-0.008;-0.017;-1.002;0.000;-0.003;-0.000;1.002;6.349;0.127;6.360;1.048;90.0000000;0.0000000;487.000;0.000;0.000;50.69;8192;12.310;0.000;0;3;0;0;0;0;0;0;0;0;0;0;0
19.1.2010;15:42:39.92;0;-0.366;-1.263;25.700;-0.281;-1.421;25.710;10;-3;38;-0.005;-0.025;-0.998;-0.001;0.002;0.003;0.998;6.394;0.121;6.438;1.598;90.0000000;0.0000000;487.000;0.000;0.000;50.69;8192;12.310;0.000;0;3;0;0;0;0;0;0;0;0;0;0;0
19.1.2010;15:42:40.12;0;-0.452;-1.185;25.908;-0.493;-1.181;26.000;10;9;-54;-0.009;-0.021;-1.000;0.001;0.000;0.001;1.000;6.329;0.058;6.331;-0.133;90.0000000;0.0000000;487.000;0.000;0.000;50.69;8192;12.313;0.000;0;3;0;0;0;0;0;0;0;0;0;0;0
19.1.2010;15:42:40.34;0;-0.327;-1.207;25.796;-0.103;-1.123;25.710;-32;-16;32;-0.002;-0.020;-1.001;-0.004;-0.002;-0.000;1.001;6.309;-0.028;6.405;1.934;90.0000000;0.0000000;487.000;0.000;0.000;50.69;8192;12.310;0.000;0;3;0;0;0;0;0;0;0;0;0;0;0
19.1.2010;15:42:40.59;0;-0.283;-1.203;25.869;-0.206;-1.261;26.520;5;-57;-35;-0.004;-0.022;-1.002;-0.000;0.000;-0.001;1.002;6.332;-0.026;6.375;1.095;90.0000000;0.0000000;487.000;0.000;0.000;50.69;8192;12.314;0.000;0;3;0;0;0;0;0;0;0;0;0;0;0
19.1.2010;15:42:40.74;0;-0.199;-1.308;26.037;-0.281;-1.518;26.280;-31;-1;-8;-0.005;-0.026;-0.999;0.004;0.002;0.003;0.999;6.517;0.127;6.555;1.235;90.0000000;0.0000000;487.000;0.000;0.000;50.69;8192;12.310;0.000;0;3;0;0;0;0;0;0;0;0;0;0;0
19.1.2010;15:42:40.95;0;-0.447;-1.113;25.938;-0.189;-0.969;25.760;-3;0;30;-0.003;-0.017;-1.003;-0.004;-0.003;-0.001;1.003;6.393;0.064;6.393;0.719;90.0000000;0.0000000;487.000;0.000;0.000;50.69;8192;12.312;0.000;0;3;0;0;0;0;0;0;0;0;0;0;0
19.1.2010;15:42:41.15;0;-0.429;-1.256;25.810;-0.361;-1.392;25.710;74;44;-64;-0.006;-0.024;-0.999;-0.001;0.002;0.002;0.999;6.425;0.066;6.417;0.604;90.0000000;0.0000000;487.000;0.000;0.000;50.69;8192;12.312;0.000;0;3;0;0;0;0;0;0;0;0;0;0;0
19.1.2010;15:42:41.34;0;-0.266;-1.142;25.782;-0.378;-1.169;25.710;11;73;17;-0.007;-0.020;-0.999;0.003;0.000;0.002;0.999;6.509;0.126;6.414;-2.579;90.0000000;0.0000000;487.000;0.000;0.000;50.69;8192;12.315;0.000;0;3;0;0;0;0;0;0;0;0;0;0;0
19.1.2010;15:42:41.65;0;-0.373;-1.226;25.801;-0.321;-1.232;25.710;1;7;-11;-0.006;-0.022;-1.001;-0.001;0.000;-0.001;1.001;6.362;0.095;6.325;-1.083;90.0000000;0.0000000;487.000;0.000;0.000;50.69;8192;12.315;0.000;0;3;0;0;0;0;0;0;0;0;0;0;0
19.1.2010;15:42:41.81;0;-0.265;-1.169;26.075;-0.126;-1.381;25.760;2;-6;-23;-0.002;-0.024;-1.004;-0.001;0.004;-0.004;1.004;6.389;0.104;6.416;0.690;90.0000000;0.0000000;487.000;0.000;0.000;50.69;8192;12.314;0.000;0;3;0;0;0;0;0;0;0;0;0;0;0
19.1.2010;15:42:41.99;0;-0.395;-1.273;26.184;-0.648;-1.215;26.330;53;-70;47;-0.011;-0.021;-1.000;0.005;-0.001;0.002;1.000;6.346;0.113;6.346;-0.707;90.0000000;0.0000000;487.000;0.000;0.000;50.69;8192;12.314;0.000;0;3;0;0;0;0;0;0;0;0;0;0;0
19.1.2010;15:42:42.18;0;-0.325;-1.193;25.887;-0.178;-1.455;25.620;-23;35;-6;-0.003;-0.025;-1.002;-0.002;0.005;-0.001;1.002;6.341;0.091;6.342;-0.130;90.0000000;0.0000000;487.000;0.000;0.000;50.69;8192;12.315;0.000;0;3;0;0;0;0;0;0;0;0;0;0;0
19.1.2010;15:42:42.38;0;-0.413;-1.236;25.725;-0.315;-1.244;26.570;-20;9;4;-0.006;-0.022;-1.002;-0.002;-0.000;0.000;1.002;6.431;0.124;6.433;0.115;90.0000000;0.0000000;487.000;0.000;0.000;50.69;8192;12.311;0.000;0;3;0;0;0;0;0;0;0;0;0;0;0
19.1.2010;15:42:42.59;0;-0.356;-1.199;26.052;-0.550;-1.095;25.710;27;12;22;-0.010;-0.019;-1.001;0.004;-0.002;0.001;1.001;6.419;0.051;6.422;0.550;90.0000000;0.0000000;487.000;0.000;0.000;50.69;8192;12.314;0.000;0;3;0;0;0;0;0;0;0;0;0;0;0
19.1.2010;15:42:42.82;0;-0.384;-1.164;25.718;-0.304;-1.095;25.620;18;-9;-8;-0.005;-0.019;-1.004;-0.001;-0.001;-0.004;1.005;6.368;0.014;6.368;-0.305;90.0000000;0.0000000;487.000;0.000;0.000;50.69;8192;12.315;0.000;0;3;0;0;0;0;0;0;0;0;0;0;0
19.1.2010;15:42:42.99;0;-0.437;-1.160;25.715;-0.321;-1.077;25.620;-9;24;-55;-0.006;-0.019;-1.000;-0.002;-0.001;0.000;1.000;6.432;0.093;6.499;1.031;90.0000000;0.0000000;487.000;0.000;0.000;50.69;8192;12.315;0.000;0;3;0;0;0;0;0;0;0;0;0;0;0
19.1.2010;15:42:43.18;0;-0.468;-1.105;25.501;-0.378;-1.135;25.760;-12;-7;-22;-0.007;-0.020;-1.004;-0.001;0.000;-0.003;1.004;6.392;0.064;6.392;0.243;90.0000000;0.0000000;487.000;0.000;0.000;50.69;8192;12.315;0.000;0;3;0;0;0;0;0;0;0;0;0;0;0
19.1.2010;15:42:43.38;0;-0.415;-1.294;26.000;-0.458;-1.209;25.710;30;-129;23;-0.008;-0.021;-0.998;0.000;-0.000;0.004;0.998;6.401;0.111;6.403;0.442;90.0000000;0.0000000;487.000;0.000;0.000;50.69;8192;12.315;0.000;0;3;0;0;0;0;0;0;0;0;0;0;0
19.1.2010;15:42:43.62;0;-0.319;-1.283;26.057;-0.321;-1.364;25.710;-26;-55;4;-0.006;-0.024;-1.003;-0.000;0.002;-0.002;1.004;6.442;0.117;6.470;0.876;90.0000000;0.0000000;487.000;0.000;0.000;50.69;8192;12.311;0.000;0;3;0;0;0;0;0;0;0;0;0;0;0
19.1.2010;15:42:43.82;0;-0.436;-1.266;25.972;-0.539;-1.261;25.710;-55;-19;-29;-0.009;-0.022;-1.000;0.002;0.000;0.001;1.000;6.363;0.045;6.384;1.052;90.0000000;0.0000000;487.000;0.000;0.000;50.69;8192;12.313;0.000;0;3;0;0;0;0;0;0;0;0;0;0;0
19.1.2010;15:42:43.99;0;-0.394;-1.262;26.232;-0.252;-1.375;26.140;45;-5;-3;-0.004;-0.024;-0.999;-0.002;0.003;0.001;0.999;6.471;0.148;6.516;1.284;90.0000000;0.0000000;487.000;0.000;0.000;50.69;8192;12.313;0.000;0;3;0;0;0;0;0;0;0;0;0;0;0
19.1.2010;15:42:44.21;0;-0.431;-1.230;25.719;-0.367;-1.232;25.570;20;7;-26;-0.006;-0.022;-1.005;-0.002;0.000;-0.005;1.005;6.477;0.129;6.553;1.531;90.0000000;0.0000000;487.000;0.000;0.000;50.69;8192;12.314;0.000;0;3;0;0;0;0;0;0;0;0;0;0;0
19.1.2010;15:42:44.42;0;-0.392;-1.156;25.711;-0.384;-1.163;25.620;-19;32;21;-0.007;-0.020;-1.002;0.000;0.000;-0.000;1.002;6.465;0.115;6.487;1.784;90.0000000;0.0000000;487.000;0.000;0.000;50.69;8192;12.311;0.000;0;3;0;0;0;0;0;0;0;0;0;0;0
19.1.2010;15:42:44.65;0;-0.517;-1.270;25.703;-0.694;-1.473;25.520;0;-47;30;-0.012;-0.026;-1.005;0.002;0.004;-0.004;1.005;6.411;0.089;6.530;2.175;90.0000000;0.0000000;487.000;0.000;0.000;50.69;8192;12.311;0.000;0;3;0;0;0;0;0;0;0;0;0;0;0
19.1.2010;15:42:44.81;0;-0.570;-1.317;26.144;-0.539;-1.278;26.240;5;23;13;-0.009;-0.022;-0.999;-0.000;-0.001;0.002;1.000;6.568;0.178;6.565;0.329;90.0000000;0.0000000;487.000;0.000;0.000;50.69;8192;12.312;0.000;0;3;0;0;0;0;0;0;0;0;0;0;0
19.1.2010;15:42:45.02;0;-0.582;-1.385;25.870;-0.539;-1.427;26.090;5;-1;-1;-0.009;-0.025;-1.000;0.000;0.000;0.002;1.000;6.569;0.165;6.609;-0.099;90.0000000;0.0000000;487.000;0.000;0.000;50.69;8192;12.310;0.000;0;3;0;0;0;0;0;0;0;0;0;0;0
19.1.2010;15:42:45.23;0;-0.366;-1.153;26.079;-0.384;-1.112;25.760;0;75;9;-0.007;-0.019;-1.000;0.001;-0.000;0.002;1.000;6.530;0.113;6.530;0.534;90.0000000;0.0000000;487.000;0.000;0.000;50.69;8192;12.310;0.000;0;3;0;0;0;0;0;0;0;0;0;0;0
19.1.2010;15:42:45.42;0;-0.366;-1.162;25.662;-0.378;-1.301;25.570;11;-38;-72;-0.007;-0.023;-1.002;0.000;0.003;-0.000;1.002;6.493;0.089;6.524;0.977;90.0000000;0.0000000;487.000;0.000;0.000;50.69;8192;12.310;0.000;0;3;0;0;0;0;0;0;0;0;0;0;0
19.1.2010;15:42:45.63;0;-0.302;-1.229;26.221;-0.212;-1.106;26.140;19;24;-7;-0.004;-0.019;-0.999;-0.002;-0.002;0.000;0.999;6.586;0.163;6.485;-1.983;90.0000000;0.0000000;487.000;0.000;0.000;50.69;8192;12.310;0.000;0;3;0;0;0;0;0;0;0;0;0;0;0
19.1.2010;15:42:45.82;0;-0.495;-1.339;25.954;-0.504;-1.473;26.050;30;-64;-11;-0.009;-0.026;-1.002;0.000;0.001;-0.001;1.002;6.575;0.147;6.669;2.439;90.0000000;0.0000000;487.000;0.000;0.000;50.69;8192;12.312;0.000;0;3;0;0;0;0;0;0;0;0;0;0;0
19.1.2010;15:42:46.02;0;-0.443;-1.282;26.407;-0.378;-1.496;25.900;-16;-51;10;-0.007;-0.026;-1.000;-0.001;0.005;-0.000;1.000;6.561;0.128;6.501;-0.605;90.0000000;0.0000000;487.000;0.000;0.000;50.69;8192;12.310;0.000;0;3;0;0;0;0;0;0;0;0;0;0;0
19.1.2010;15:42:46.23;0;-0.374;-1.294;25.940;-0.361;-1.307;25.570;6;-45;-12;-0.006;-0.023;-0.999;-0.000;0.001;0.002;0.999;6.589;0.179;6.461;-1.959;90.0000000;0.0000000;487.000;0.000;0.000;50.69;8192;12.315;0.000;0;3;0;0;0;0;0;0;0;0;0;0;0
19.1.2010;15:42:46.45;0;-0.616;-1.306;25.930;-0.659;-1.364;25.900;21;27;-14;-0.012;-0.024;-1.000;-0.002;-0.000;0.001;1.000;6.499;0.145;6.489;-1.034;90.0000000;0.0000000;487.000;0.000;0.000;50.69;8192;12.313;0.000;0;3;0;0;0;0;0;0;0;0;0;0;0
19.1.2010;15:42:46.67;0;-0.469;-1.411;26.320;-0.304;-1.301;26.470;18;-5;5;-0.005;-0.023;-1.000;-0.002;-0.003;0.000;1.000;6.477;0.145;6.480;0.129;90.0000000;0.0000000;487.000;0.000;0.000;50.69;8192;12.312;0.000;0;3;0;0;0;0;0;0;0;0;0;0;0
19.1.2010;15:42:46.93;0;-0.466;-1.360;26.285;-0.625;-1.375;26.190;-47;-15;27;-0.011;-0.024;-1.000;0.003;0.001;0.002;1.000;6.488;0.122;6.443;-0.990;90.0000000;0.0000000;487.000;0.000;0.000;50.69;8192;12.313;0.000;0;3;0;0;0;0;0;0;0;0;0;0;0
19.1.2010;15:42:47.17;0;-0.557;-1.349;25.901;-0.516;-1.375;26.000;27;91;-22;-0.009;-0.024;-1.003;-0.001;0.001;-0.002;1.003;6.527;0.096;6.527;0.745;90.0000000;0.0000000;487.000;0.000;0.000;50.69;8192;12.310;0.000;0;3;0;0;0;0;0;0;0;0;0;0;0
19.1.2010;15:42:47.35;0;-0.543;-1.360;25.907;-0.562;-1.381;25.810;60;-105;28;-0.010;-0.024;-0.998;0.000;0.001;0.003;0.998;6.550;0.144;6.556;-0.655;90.0000000;0.0000000;487.000;0.000;0.000;50.69;8192;12.311;0.000;0;3;0;0;0;0;0;0;0;0;0;0;0
19.1.2010;15:42:47.49;0;-0.528;-1.385;25.903;-0.476;-1.496;26.000;-13;-3;-21;-0.008;-0.026;-1.002;-0.001;0.002;-0.001;1.003;6.510;0.024;6.589;1.041;90.0000000;0.0000000;487.000;0.000;0.000;50.69;8192;12.312;0.000;0;3;0;0;0;0;0;0;0;0;0;0;0
19.1.2010;15:42:47.76;0;-0.454;-1.247;25.696;-0.613;-1.329;25.570;-16;-56;-50;-0.011;-0.023;-1.003;0.004;0.003;-0.002;1.003;6.568;0.060;6.601;0.219;90.0000000;0.0000000;487.000;0.000;0.000;50.69;8192;12.310;0.000;0;3;0;0;0;0;0;0;0;0;0;0;0
19.1.2010;15:42:47.90;0;-0.419;-1.165;25.730;-0.585;-1.181;25.760;-16;9;-59;-0.010;-0.021;-1.001;0.002;0.000;-0.000;1.001;6.579;0.066;6.580;1.141;90.0000000;0.0000000;487.000;0.000;0.000;50.69;8192;12.314;0.000;0;3;0;0;0;0;0;0;0;0;0;0;0
19.1.2010;15:42:48.07;0;-0.509;-1.273;25.601;-0.407;-1.455;25.430;19;3;-32;-0.007;-0.025;-1.004;-0.003;0.003;-0.004;1.005;6.697;0.160;6.602;-2.100;90.0000000;0.0000000;487.000;0.000;0.000;50.69;8192;12.311;0.000;0;3;0;0;0;0;0;0;0;0;0;0;0
19.1.2010;15:42:48.27;0;-0.457;-1.316;25.902;-0.361;-1.329;26.000;19;-53;-7;-0.006;-0.023;-1.003;-0.001;-0.000;-0.001;1.004;6.526;0.037;6.509;0.404;90.0000000;0.0000000;487.000;0.000;0.000;50.69;8192;12.310;0.000;0;3;0;0;0;0;0;0;0;0;0;0;0
19.1.2010;15:42:48.48;0;-0.480;-1.310;26.025;-0.470;-1.576;26.660;39;34;17;-0.008;-0.028;-1.002;0.000;0.004;-0.001;1.002;6.592;0.144;6.643;1.525;90.0000000;0.0000000;487.000;0.000;0.000;50.69;8192;12.314;0.000;0;3;0;0;0;0;0;0;0;0;0;0;0
19.1.2010;15:42:48.68;0;-0.362;-1.332;25.979;-0.350;-1.329;26.620;26;27;16;-0.006;-0.023;-0.999;0.000;-0.001;0.001;0.999;6.594;0.113;6.537;-0.870;90.0000000;0.0000000;487.000;0.000;0.000;50.69;8192;12.314;0.000;0;3;0;0;0;0;0;0;0;0;0;0;0
19.1.2010;15:42:48.87;0;-0.439;-1.404;26.346;-0.315;-1.576;27.090;-41;44;-46;-0.006;-0.028;-1.004;-0.002;0.001;-0.002;1.004;6.578;0.065;6.662;1.859;90.0000000;0.0000000;487.000;0.000;0.000;50.69;8192;12.314;0.000;0;3;0;0;0;0;0;0;0;0;0;0;0
19.1.2010;15:42:49.09;0;-0.499;-1.247;25.857;-0.487;-1.043;25.570;-14;5;-12;-0.008;-0.018;-1.004;-0.002;-0.002;-0.001;1.005;6.557;0.064;6.568;0.429;90.0000000;0.0000000;487.000;0.000;0.000;50.69;8192;12.312;0.000;0;3;0;0;0;0;0;0;0;0;0;0;0
19.1.2010;15:42:49.29;0;-0.476;-1.302;25.868;-0.694;-1.541;26.050;-23;10;20;-0.012;-0.027;-1.000;0.004;0.004;0.002;1.000;6.554;0.046;6.656;1.493;90.0000000;0.0000000;487.000;0.000;0.000;50.69;8192;12.315;0.000;0;3;0;0;0;0;0;0;0;0;0;0;0
19.1.2010;15:42:49.59;0;-0.468;-1.412;26.303;-0.533;-1.335;26.470;8;28;-15;-0.009;-0.023;-1.002;0.002;-0.002;-0.000;1.002;6.518;0.005;6.537;0.956;90.0000000;0.0000000;487.000;0.000;0.000;50.69;8192;12.310;0.000;0;3;0;0;0;0;0;0;0;0;0;0;0
19.1.2010;15:42:49.70;0;-0.478;-1.290;26.081;-0.378;-1.289;25.710;29;-35;21;-0.007;-0.022;-1.001;-0.000;0.001;0.001;1.001;6.631;0.126;6.630;0.002;90.0000000;0.0000000;487.000;0.000;0.000;50.69;8192;12.313;0.000;0;3;0;0;0;0;0;0;0;0;0;0;0
19.1.2010;15:42:49.88;0;-0.349;-1.442;26.379;-0.378;-1.455;26.900;-24;27;38;-0.007;-0.025;-0.997;0.001;-0.001;0.003;0.998;6.549;-0.004;6.582;0.379;90.0000000;0.0000000;487.000;0.000;0.000;50.69;8192;12.313;0.000;0;3;0;0;0;0;0;0;0;0;0;0;0
19.1.2010;15:42:50.10;0;-0.351;-1.379;26.418;-0.585;-1.329;26.430;3;4;-14;-0.010;-0.023;-0.998;0.004;-0.000;0.003;0.999;6.723;0.164;6.808;1.143;90.0000000;0.0000000;487.000;0.000;0.000;50.69;8192;12.314;0.000;0;3;0;0;0;0;0;0;0;0;0;0;0
19.1.2010;15:42:50.29;0;-0.493;-1.371;26.527;-0.602;-1.261;26.430;4;21;24;-0.010;-0.022;-1.001;0.002;-0.001;-0.002;1.001;6.613;0.068;6.613;0.640;90.0000000;0.0000000;487.000;0.000;0.000;50.69;8192;12.310;0.000;0;3;0;0;0;0;0;0;0;0;0;0;0
19.1.2010;15:42:50.49;0;-0.579;-1.262;25.879;-0.866;-1.289;25.520;-36;-17;-48;-0.015;-0.022;-1.000;0.005;0.001;-0.000;1.001;6.569;0.090;6.568;-0.922;90.0000000;0.0000000;487.000;0.000;0.000;50.69;8192;12.310;0.000;0;3;0;0;0;0;0;0;0;0;0;0;0
19.1.2010;15:42:50.73;0;-0.421;-1.257;26.042;-0.453;-1.347;26.140;-1;35;-19;-0.008;-0.024;-1.002;0.001;0.002;-0.003;1.003;6.575;0.059;6.570;0.205;90.0000000;0.0000000;487.000;0.000;0.000;50.69;8192;12.314;0.000;0;3;0;0;0;0;0;0;0;0;0;0;0
19.1.2010;15:42:50.92;0;-0.497;-1.378;26.084;-0.413;-1.301;26.850;30;20;10;-0.007;-0.023;-1.000;0.000;-0.002;0.000;1.000;6.621;0.085;6.619;1.215;90.0000000;0.0000000;487.000;0.000;0.000;50.69;8192;12.312;0.000;0;3;0;0;0;0;0;0;0;0;0;0;0
19.1.2010;15:42:51.10;0;-0.519;-1.237;26.330;-0.757;-1.186;26.140;-18;48;7;-0.013;-0.021;-0.999;0.003;-0.000;0.001;0.999;6.730;0.167;6.631;-2.266;90.0000000;0.0000000;487.000;0.000;0.000;50.69;8192;12.312;0.000;0;3;0;0;0;0;0;0;0;0;0;0;0
19.1.2010;15:42:51.38;0;-0.442;-1.323;26.011;-0.378;-1.301;25.850;-12;-16;3;-0.007;-0.023;-1.003;-0.001;-0.002;-0.003;1.003;6.686;0.152;6.564;-1.827;90.0000000;0.0000000;487.000;0.000;0.000;50.69;8192;12.313;0.000;0;3;0;0;0;0;0;0;0;0;0;0;0
19.1.2010;15:42:51.59;0;-0.423;-1.218;26.222;-0.453;-1.095;26.140;-26;-8;-19;-0.008;-0.019;-0.998;0.001;-0.002;0.002;0.999;6.552;0.102;6.583;0.189;90.0000000;0.0000000;487.000;0.000;0.000;50.69;8192;12.313;0.000;0;3;0;0;0;0;0;0;0;0;0;0;0
19.1.2010;15:42:51.74;0;-0.455;-1.158;25.662;-0.441;-1.215;25.760;44;1;20;-0.008;-0.021;-0.998;-0.000;0.001;0.002;0.998;6.510;0.073;6.533;-0.195;90.0000000;0.0000000;487.000;0.000;0.000;50.69;8192;12.310;0.000;0;3;0;0;0;0;0;0;0;0;0;0;0
19.1.2010;15:42:51.92;0;-0.453;-1.313;26.289;-0.585;-1.438;26.620;-12;26;-57;-0.010;-0.025;-1.003;0.002;0.001;-0.001;1.003;6.588;0.114;6.589;0.861;90.0000000;0.0000000;487.000;0.000;0.000;50.69;8192;12.312;0.000;0;3;0;0;0;0;0;0;0;0;0;0;0
19.1.2010;15:42:52.13;0;-0.345;-1.386;26.095;-0.304;-1.198;26.000;28;53;40;-0.005;-0.021;-0.999;-0.000;-0.003;0.002;0.999;6.525;0.092;6.545;-0.437;90.0000000;0.0000000;487.000;0.000;0.000;50.69;8192;12.311;0.000;0;3;0;0;0;0;0;0;0;0;0;0;0
19.1.2010;15:42:52.32;0;-0.321;-1.215;26.174;-0.315;-1.255;26.000;-2;-12;8;-0.006;-0.022;-1.003;0.000;0.001;-0.001;1.003;6.573;0.116;6.648;1.434;90.0000000;0.0000000;487.000;0.000;0.000;50.69;8192;12.311;0.000;0;3;0;0;0;0;0;0;0;0;0;0;0
19.1.2010;15:42:52.54;0;-0.338;-1.294;25.903;-0.304;-1.089;25.710;-31;5;-73;-0.005;-0.019;-0.999;-0.001;-0.002;0.002;0.999;6.635;0.128;6.594;-2.426;90.0000000;0.0000000;487.000;0.000;0.000;50.69;8192;12.315;0.000;0;3;0;0;0;0;0;0;0;0;0;0;0
19.1.2010;15:42:52.73;0;-0.410;-1.196;26.215;-0.493;-1.060;26.000;16;-67;2;-0.009;-0.018;-1.001;0.000;-0.001;-0.000;1.001;6.681;0.099;6.680;1.094;90.0000000;0.0000000;487.000;0.000;0.000;50.69;8192;12.311;0.000;0;3;0;0;0;0;0;0;0;0;0;0;0
19.1.2010;15:42:52.93;0;-0.236;-1.298;25.999;-0.114;-1.375;25.900;-5;53;-8;-0.002;-0.024;-1.000;-0.002;0.002;0.000;1.000;6.588;0.080;6.580;0.632;90.0000000;0.0000000;487.000;0.000;0.000;50.69;8192;12.311;0.000;0;3;0;0;0;0;0;0;0;0;0;0;0
19.1.2010;15:42:53.15;0;-0.311;-1.245;26.095;-0.172;-1.335;26.140;25;-39;-12;-0.003;-0.023;-1.002;-0.003;0.003;-0.002;1.002;6.657;0.155;6.662;-0.833;90.0000000;0.0000000;487.000;0.000;0.000;50.69;8192;12.313;0.000;0;3;0;0;0;0;0;0;0;0;0;0;0
19.1.2010;15:42:53.35;0;-0.380;-1.244;25.865;-0.470;-1.135;25.810;-24;21;40;-0.008;-0.020;-0.998;0.002;-0.001;0.003;0.998;6.588;0.114;6.560;-1.266;90.0000000;0.0000000;487.000;0.000;0.000;50.69;8192;12.311;0.000;0;3;0;0;0;0;0;0;0;0;0;0;0
19.1.2010;15:42:53.57;0;-0.477;-1.295;25.804;-0.258;-1.398;25.900;51;-42;-15;-0.004;-0.024;-0.999;-0.003;0.002;0.001;0.999;6.514;0.012;6.639;1.856;90.0000000;0.0000000;487.000;0.000;0.000;50.69;8192;12.315;0.000;0;3;0;0;0;0;0;0;0;0;0;0;0
19.1.2010;15:42:53.77;0;-0.463;-1.409;26.182;-0.441;-1.438;26.280;28;-57;1;-0.008;-0.025;-1.000;0.000;0.000;0.001;1.000;6.587;0.062;6.574;0.734;90.0000000;0.0000000;487.000;0.000;0.000;50.69;8192;12.315;0.000;0;3;0;0;0;0;0;0;0;0;0;0;0
19.1.2010;15:42:53.99;0;-0.337;-1.493;26.447;-0.269;-1.427;26.280;13;-16;40;-0.005;-0.025;-1.002;-0.001;0.000;0.000;1.002;6.616;0.076;6.626;0.573;90.0000000;0.0000000;487.000;0.000;0.000;50.69;8192;12.310;0.000;0;3;0;0;0;0;0;0;0;0;0;0;0
19.1.2010;15:42:54.15;0;-0.417;-1.322;26.093;-0.315;-1.318;26.000;-4;17;36;-0.006;-0.023;-0.998;-0.002;0.000;0.003;0.998;6.608;0.015;6.610;0.500;90.0000000;0.0000000;487.000;0.000;0.000;50.69;8192;12.311;0.000;0;3;0;0;0;0;0;0;0;0;0;0;0
19.1.2010;15:42:54.35;0;-0.364;-1.200;26.053;-0.332;-1.152;25.570;-17;3;10;-0.006;-0.020;-1.003;0.000;0.000;-0.003;1.003;6.562;0.015;6.562;0.085;90.0000000;0.0000000;487.000;0.000;0.000;50.69;8192;12.312;0.000;0;3;0;0;0;0;0;0;0;0;0;0;0
19.1.2010;15:42:54.59;0;-0.260;-1.265;26.260;-0.223;-1.289;26.330;-68;18;5;-0.004;-0.022;-0.998;0.000;0.001;0.002;0.999;6.588;0.065;6.585;0.098;90.0000000;0.0000000;487.000;0.000;0.000;50.69;8192;12.314;0.000;0;3;0;0;0;0;0;0;0;0;0;0;0
19.1.2010;15:42:54.76;0;-0.363;-1.221;26.112;-0.441;-1.049;25.710;-32;-43;53;-0.008;-0.018;-0.998;0.000;-0.002;0.001;0.998;6.731;0.173;6.731;0.152;90.0000000;0.0000000;487.000;0.000;0.000;50.69;8192;12.314;0.000;0;3;0;0;0;0;0;0;0;0;0;0;0
19.1.2010;15:42:54.96;0;-0.393;-1.322;25.770;-0.143;-1.392;26.000;-26;-43;37;-0.002;-0.024;-1.002;-0.004;0.000;-0.002;1.002;6.701;0.102;6.732;1.605;90.0000000;0.0000000;487.000;0.000;0.000;50.69;8192;12.313;0.000;0;3;0;0;0;0;0;0;0;0;0;0;0
19.1.2010;15:42:55.18;0;-0.252;-1.300;25.869;-0.097;-1.455;26.090;-31;-13;-87;-0.002;-0.025;-0.999;-0.002;0.003;0.001;0.999;6.772;0.192;6.755;-1.066;90.0000000;0.0000000;487.000;0.000;0.000;50.69;8192;12.312;0.000;0;3;0;0;0;0;0;0;0;0;0;0;0
19.1.2010;15:42:55.40;0;-0.287;-1.225;26.066;-0.097;-1.347;26.330;41;-15;9;-0.002;-0.024;-1.000;-0.002;0.002;-0.000;1.000;6.735;0.136;6.775;2.153;90.0000000;0.0000000;487.000;0.000;0.000;50.69;8192;12.313;0.000;0;3;0;0;0;0;0;0;0;0;0;0;0
19.1.2010;15:42:55.60;0;-0.346;-1.293;26.000;-0.350;-1.541;25.900;-20;-52;19;-0.006;-0.027;-0.999;0.000;0.005;0.002;1.000;6.800;0.172;6.792;-0.292;90.0000000;0.0000000;487.000;0.000;0.000;50.69;8192;12.311;0.000;0;3;0;0;0;0;0;0;0;0;0;0;0
19.1.2010;15:42:55.77;0;-0.327;-1.375;26.284;-0.315;-1.335;26.430;20;-37;10;-0.006;-0.023;-0.997;-0.000;-0.001;0.005;0.997;6.732;0.042;6.745;0.439;90.0000000;0.0000000;487.000;0.000;0.000;50.69;8192;12.311;0.000;0;3;0;0;0;0;0;0;0;0;0;0;0
19.1.2010;15:42:55.99;0;-0.473;-1.297;25.809;-0.470;-1.307;25.710;-1;-58;-3;-0.008;-0.023;-1.004;0.000;0.001;-0.002;1.004;6.697;0.004;6.768;0.523;90.0000000;0.0000000;487.000;0.000;0.000;50.69;8192;12.314;0.000;0;3;0;0;0;0;0;0;0;0;0;0;0
19.1.2010;15:42:56.21;0;-0.255;-1.244;26.141;-0.143;-1.209;26.520;55;-27;13;-0.002;-0.021;-1.002;-0.001;-0.000;-0.000;1.002;6.603;-0.023;6.638;0.043;90.0000000;0.0000000;487.000;0.000;0.000;50.69;8192;12.311;0.000;0;3;0;0;0;0;0;0;0;0;0;0;0
19.1.2010;15:42:56.48;0;-0.197;-1.148;25.857;-0.143;-1.163;25.850;10;48;12;-0.002;-0.020;-1.002;0.001;0.001;-0.001;1.002;6.624;-0.014;6.654;0.847;90.0000000;0.0000000;487.000;0.000;0.000;50.69;8192;12.310;0.000;0;3;0;0;0;0;0;0;0;0;0;0;0
19.1.2010;15:42:56.67;0;-0.423;-1.415;26.373;-0.613;-1.392;26.280;23;-4;-74;-0.011;-0.024;-1.000;0.002;-0.001;0.000;1.000;6.658;0.068;6.656;0.171;90.0000000;0.0000000;487.000;0.000;0.000;50.69;8192;12.312;0.000;0;3;0;0;0;0;0;0;0;0;0;0;0
19.1.2010;15:42:56.82;0;-0.382;-1.405;26.116;-0.304;-1.467;26.470;47;10;50;-0.005;-0.026;-1.000;-0.001;0.000;0.001;1.001;6.655;0.040;6.668;0.598;90.0000000;0.0000000;487.000;0.000;0.000;50.69;8192;12.310;0.000;0;3;0;0;0;0;0;0;0;0;0;0;0
19.1.2010;15:42:56.99;0;-0.404;-1.276;26.162;-0.493;-1.307;26.380;-22;58;14;-0.009;-0.023;-1.000;0.001;0.002;0.001;1.000;6.697;0.128;6.680;-0.402;90.0000000;0.0000000;487.000;0.000;0.000;50.69;8192;12.312;0.000;0;3;0;0;0;0;0;0;0;0;0;0;0
19.1.2010;15:42:57.20;0;-0.331;-1.428;26.474;-0.304;-1.272;26.140;-6;-37;-5;-0.005;-0.022;-0.999;-0.001;-0.003;0.001;0.999;6.625;0.089;6.581;-1.220;90.0000000;0.0000000;487.000;0.000;0.000;50.69;8192;12.311;0.000;0;3;0;0;0;0;0;0;0;0;0;0;0
19.1.2010;15:42:57.43;0;-0.408;-1.486;26.526;-0.350;-1.438;26.330;-60;-9;-9;-0.006;-0.025;-1.001;-0.001;-0.001;-0.001;1.001;6.696;0.124;6.612;-2.695;90.0000000;0.0000000;487.000;0.000;0.000;50.69;8192;12.312;0.000;0;3;0;0;0;0;0;0;0;0;0;0;0
19.1.2010;15:42:57.62;0;-0.306;-1.380;26.431;-0.344;-1.198;26.000;12;-8;-29;-0.006;-0.021;-1.002;0.001;-0.002;0.000;1.002;6.694;0.058;6.760;1.610;90.0000000;0.0000000;487.000;0.000;0.000;50.69;8192;12.312;0.000;0;3;0;0;0;0;0;0;0;0;0;0;0
19.1.2010;15:42:57.81;0;-0.414;-1.280;25.892;-0.470;-1.095;26.140;3;-43;-8;-0.008;-0.019;-1.004;0.001;-0.002;-0.002;1.004;6.681;-0.024;6.682;-0.315;90.0000000;0.0000000;487.000;0.000;0.000;50.69;8192;12.311;0.000;0;3;0;0;0;0;0;0;0;0;0;0;0
19.1.2010;15:42:58.01;0;-0.526;-1.430;26.095;-0.487;-1.410;26.190;34;28;32;-0.008;-0.025;-1.001;-0.002;-0.002;-0.000;1.001;6.733;0.016;6.649;-2.350;90.0000000;0.0000000;487.000;0.000;0.000;50.69;8192;12.315;0.000;0;3;0;0;0;0;0;0;0;0;0;0;0
19.1.2010;15:42:58.23;0;-0.484;-1.519;26.274;-0.424;-1.587;26.760;-21;6;17;-0.007;-0.028;-1.003;0.000;-0.000;-0.002;1.003;6.766;0.028;6.766;-0.966;90.0000000;0.0000000;487.000;0.000;0.000;50.69;8192;12.311;0.000;0;3;0;0;0;0;0;0;0;0;0;0;0
19.1.2010;15:42:58.42;0;-0.343;-1.421;26.528;-0.361;-1.352;26.280;-8;12;-32;-0.006;-0.024;-1.003;0.000;-0.001;-0.001;1.003;6.677;-0.055;6.713;0.880;90.0000000;0.0000000;487.000;0.000;0.000;50.69;8192;12.315;0.000;0;3;0;0;0;0;0;0;0;0;0;0;0
19.1.2010;15:42:58.63;0;-0.439;-1.350;26.397;-0.424;-1.244;26.430;17;23;18;-0.007;-0.022;-1.002;-0.000;-0.001;-0.001;1.002;6.745;0.005;6.764;1.109;90.0000000;0.0000000;487.000;0.000;0.000;50.69;8192;12.311;0.000;0;3;0;0;0;0;0;0;0;0;0;0;0
19.1.2010;15:42:58.84;0;-0.383;-1.348;26.171;-0.361;-1.301;26.190;-36;21;-8;-0.006;-0.023;-1.000;-0.000;-0.001;0.000;1.001;6.691;0.000;6.714;1.340;90.0000000;0.0000000;487.000;0.000;0.000;50.69;8192;12.313;0.000;0;3;0;0;0;0;0;0;0;0;0;0;0
19.1.2010;15:42:59.02;0;-0.422;-1.295;25.934;-0.378;-1.587;25.760;-15;-16;35;-0.007;-0.028;-0.997;-0.001;0.005;0.003;0.998;6.739;0.009;6.745;0.466;90.0000000;0.0000000;487.000;0.000;0.000;50.69;8192;12.314;0.000;0;3;0;0;0;0;0;0;0;0;0;0;0
19.1.2010;15:42:59.24;0;-0.480;-1.370;26.274;-0.688;-1.318;25.850;11;40;-36;-0.012;-0.023;-1.001;0.004;-0.000;-0.000;1.002;6.694;0.005;6.694;0.674;90.0000000;0.0000000;487.000;0.000;0.000;50.69;8192;12.311;0.000;0;3;0;0;0;0;0;0;0;0;0;0;0
19.1.2010;15:42:59.43;0;-0.506;-1.386;26.360;-0.367;-1.398;26.430;10;3;-72;-0.006;-0.024;-1.000;-0.003;0.001;0.001;1.000;6.688;0.007;6.721;1.201;90.0000000;0.0000000;487.000;0.000;0.000;50.69;8192;12.315;0.000;0;3;0;0;0;0;0;0;0;0;0;0;0
19.1.2010;15:42:59.67;0;-0.502;-1.306;25.811;-0.395;-1.335;26.000;-16;13;-7;-0.007;-0.023;-1.002;-0.002;0.000;-0.002;1.002;6.680;0.011;6.733;1.759;90.0000000;0.0000000;487.000;0.000;0.000;50.69;8192;12.311;0.000;0;3;0;0;0;0;0;0;0;0;0;0;0
19.1.2010;15:42:59.85;0;-0.514;-1.342;26.090;-0.504;-1.278;26.000;2;-37;29;-0.009;-0.022;-0.997;-0.001;-0.001;0.004;0.997;6.827;0.093;6.827;-1.025;90.0000000;0.0000000;487.000;0.000;0.000;50.69;8192;12.312;0.000;0;3;0;0;0;0;0;0;0;0;0;0;0
19.1.2010;15:43:00.04;0;-0.382;-1.321;25.983;-0.361;-1.421;26.190;21;6;15;-0.006;-0.025;-1.000;0.000;0.001;-0.000;1.001;6.742;-0.004;6.781;1.033;90.0000000;0.0000000;487.000;0.000;0.000;50.69;8192;12.314;0.000;0;3;0;0;0;0;0;0;0;0;0;0;0
19.1.2010;15:43:00.27;0;-0.504;-1.434;26.170;-0.493;-1.455;26.280;-17;-8;26;-0.009;-0.025;-1.001;-0.001;-0.000;-0.000;1.001;6.844;0.093;6.820;0.308;90.0000000;0.0000000;487.000;0.000;0.000;50.69;8192;12.311;0.000;0;3;0;0;0;0;0;0;0;0;0;0;0
19.1.2010;15:43:00.46;0;-0.478;-1.314;25.942;-0.476;-1.181;26.190;7;74;3;-0.008;-0.021;-0.999;0.001;-0.002;0.002;1.000;6.792;0.064;6.804;0.074;90.0000000;0.0000000;487.000;0.000;0.000;50.69;8192;12.310;0.000;0;3;0;0;0;0;0;0;0;0;0;0;0
19.1.2010;15:43:00.67;0;-0.578;-1.176;25.569;-0.407;-1.043;25.470;15;31;-54;-0.007;-0.018;-1.003;-0.002;-0.001;-0.001;1.003;6.800;0.052;6.796;0.134;90.0000000;0.0000000;487.000;0.000;0.000;50.69;8192;12.315;0.000;0;3;0;0;0;0;0;0;0;0;0;0;0
19.1.2010;15:43:00.85;0;-0.445;-1.256;25.672;-0.441;-1.232;25.900;15;-2;-54;-0.008;-0.022;-0.998;0.001;-0.000;0.003;0.998;6.839;0.111;6.764;-1.547;90.0000000;0.0000000;487.000;0.000;0.000;50.69;8192;12.311;0.000;0;3;0;0;0;0;0;0;0;0;0;0;0
19.1.2010;15:43:01.07;0;-0.453;-1.350;25.863;-0.258;-1.410;25.850;-23;49;-17;-0.004;-0.025;-1.001;-0.003;-0.000;-0.001;1.001;6.859;0.104;6.730;-2.560;90.0000000;0.0000000;487.000;0.000;0.000;50.69;8192;12.314;0.000;0;3;0;0;0;0;0;0;0;0;0;0;0
19.1.2010;15:43:01.26;0;-0.365;-1.209;25.788;-0.350;-1.186;25.900;14;20;42;-0.006;-0.021;-0.999;0.000;-0.000;0.002;1.000;6.840;0.120;6.786;-1.651;90.0000000;0.0000000;487.000;0.000;0.000;50.69;8192;12.314;0.000;0;3;0;0;0;0;0;0;0;0;0;0;0
19.1.2010;15:43:01.48;0;-0.386;-1.410;26.200;-0.441;-1.398;26.470;67;1;71;-0.008;-0.024;-1.000;0.002;-0.001;0.000;1.001;6.755;-0.011;6.822;1.075;90.0000000;0.0000000;487.000;0.000;0.000;50.69;8192;12.310;0.000;0;3;0;0;0;0;0;0;0;0;0;0;0
19.1.2010;15:43:01.68;0;-0.426;-1.391;26.024;-0.659;-1.530;26.190;8;-53;0;-0.012;-0.027;-1.000;0.004;0.003;0.000;1.000;6.817;0.017;6.856;0.635;90.0000000;0.0000000;487.000;0.000;0.000;50.69;8192;12.313;0.000;0;3;0;0;0;0;0;0;0;0;0;0;0
19.1.2010;15:43:01.88;0;-0.463;-1.222;25.802;-0.562;-1.186;25.710;-10;23;-61;-0.010;-0.021;-0.997;0.002;-0.000;0.003;0.997;6.865;0.038;6.879;-1.377;90.0000000;0.0000000;487.000;0.000;0.000;50.69;8192;12.312;0.000;0;3;0;0;0;0;0;0;0;0;0;0;0
19.1.2010;15:43:02.09;0;-0.449;-1.315;25.877;-0.453;-1.398;26.190;50;-47;-62;-0.008;-0.024;-1.000;0.001;0.000;0.000;1.000;6.730;-0.071;6.714;0.344;90.0000000;0.0000000;487.000;0.000;0.000;50.69;8192;12.313;0.000;0;3;0;0;0;0;0;0;0;0;0;0;0
19.1.2010;15:43:02.31;0;-0.428;-1.396;26.269;-0.504;-1.530;26.280;-22;-21;-7;-0.009;-0.027;-1.000;0.001;0.003;0.002;1.000;6.643;-0.136;6.704;0.434;90.0000000;0.0000000;487.000;0.000;0.000;50.69;8192;12.310;0.000;0;3;0;0;0;0;0;0;0;0;0;0;0
19.1.2010;15:43:02.49;0;-0.601;-1.325;26.240;-0.602;-1.307;25.810;47;3;53;-0.010;-0.023;-1.001;0.000;-0.000;-0.000;1.002;6.589;-0.158;6.585;-0.876;90.0000000;0.0000000;487.000;0.000;0.000;50.69;8192;12.313;0.000;0;3;0;0;0;0;0;0;0;0;0;0;0
19.1.2010;15:43:02.70;0;-0.551;-1.252;25.602;-0.562;-1.438;25.570;-28;-3;-11;-0.010;-0.025;-0.999;0.000;0.004;0.001;1.000;6.657;-0.132;6.675;0.861;90.0000000;0.0000000;487.000;0.000;0.000;50.69;8192;12.314;0.000;0;3;0;0;0;0;0;0;0;0;0;0;0
19.1.2010;15:43:02.88;0;-0.465;-1.315;26.145;-0.453;-1.272;25.520;35;8;-4;-0.008;-0.022;-0.998;0.001;-0.001;0.002;0.998;6.690;-0.065;6.689;-0.757;90.0000000;0.0000000;487.000;0.000;0.000;50.69;8192;12.311;0.000;0;3;0;0;0;0;0;0;0;0;0;0;0
19.1.2010;15:43:03.09;0;-0.562;-1.433;26.112;-0.493;-1.484;26.660;20;-18;27;-0.009;-0.026;-1.000;-0.001;0.000;-0.000;1.001;6.593;-0.143;6.745;3.091;90.0000000;0.0000000;487.000;0.000;0.000;50.69;8192;12.311;0.000;0;3;0;0;0;0;0;0;0;0;0;0;0
19.1.2010;15:43:03.31;0;-0.494;-1.370;26.437;-0.504;-1.198;26.430;9;9;-20;-0.009;-0.021;-0.998;0.002;-0.002;0.002;0.998;6.715;-0.101;6.748;0.556;90.0000000;0.0000000;487.000;0.000;0.000;50.69;8192;12.311;0.000;0;3;0;0;0;0;0;0;0;0;0;0;0
19.1.2010;15:43:03.51;0;-0.575;-1.283;25.699;-0.344;-1.244;25.570;-12;53;6;-0.006;-0.022;-1.000;-0.003;0.000;-0.001;1.000;6.755;-0.061;6.767;0.886;90.0000000;0.0000000;487.000;0.000;0.000;50.69;8192;12.313;0.000;0;3;0;0;0;0;0;0;0;0;0;0;0
